index,address,bathrooms,country,detailedType.subTypology,detailedType.typology,district,exterior,externalReference,floor,has360,has3DTour,hasLift,hasPlan,hasVideo,latitude,longitude,municipality,neighborhood,newDevelopment,newDevelopmentFinished,numPhotos,operation,parkingSpace.hasParkingSpace,parkingSpace.isParkingSpaceIncludedInPrice,parkingSpace.parkingSpacePrice,price,priceByArea,propertyCode,propertyType,province,rooms,showAddress,size,status,suggestedTexts.subtitle,suggestedTexts.title,thumbnail,url
0,BENET MATEU,2,es,,flat,Sarrià-Sant Gervasi,False,OLLE430000,2,False,False,True,False,False,41.3963255,2.1251025,Barcelona,Sarrià,False,,16,sale,,,,430000.0,3981.0,87627258,flat,Barcelona,4,False,108.0,renew,"Sarrià, Barcelona",Piso en BENET MATEU,https://img3.idealista.com/blur/WEB_LISTING/0/id.pro.es.image.master/b0/ca/59/726621376.jpg,https://www.idealista.com/inmueble/87627258/
1,Calle del General Álvarez de Castro,1,es,,flat,Ciutat Vella,True,,2,False,False,True,False,False,41.3866647,2.1787237,Barcelona,Sant Pere - Santa Caterina i la Ribera,False,,17,sale,,,,330000.0,3837.0,87627067,flat,Barcelona,3,False,86.0,good,"Sant Pere - Santa Caterina i la Ribera, Barcelona",Piso en Calle del General Álvarez de Castro,https://img3.idealista.com/blur/WEB_LISTING/0/id.pro.es.image.master/cf/b0/42/726616933.jpg,https://www.idealista.com/inmueble/87627067/
2,barrio El Putxet i el Farró,3,es,,flat,Sarrià-Sant Gervasi,False,002544,2,True,False,True,True,True,41.401842,2.1438466,Barcelona,El Putxet i el Farró,False,,20,sale,,,,780000.0,4588.0,87627096,flat,Barcelona,4,False,170.0,renew,"El Putxet i el Farró, Barcelona",Piso,https://img3.idealista.com/blur/WEB_LISTING/0/id.pro.es.image.master/8d/fe/dc/726617174.jpg,https://www.idealista.com/inmueble/87627096/
3,Calle Part Gran Via Corts Catalans,3,es,,flat,Eixample,True,VENTA GRAN VIA,4,False,False,True,False,False,41.3771216,2.1533597,Barcelona,La Nova Esquerra de l'Eixample,False,,11,sale,,,,430000.0,3468.0,87626991,flat,Barcelona,4,False,124.0,renew,"La Nova Esquerra de l'Eixample, Barcelona",Piso en Calle Part Gran Via Corts Catalans,https://img3.idealista.com/blur/WEB_LISTING/0/id.pro.es.image.master/4d/c2/7e/726615072.jpg,https://www.idealista.com/inmueble/87626991/
4,Calle de Teodora Lamadrid,3,es,,flat,Sarrià-Sant Gervasi,True,665-19V,3,False,False,True,False,False,41.4052322,2.1352946,Barcelona,Sant Gervasi - La Bonanova,False,,34,sale,,,,795000.0,5803.0,87626826,flat,Barcelona,5,False,137.0,good,"Sant Gervasi - La Bonanova, Barcelona",Piso en Calle de Teodora Lamadrid,https://img3.idealista.com/blur/WEB_LISTING/0/id.pro.es.image.master/6a/8d/e9/726611340.jpg,https://www.idealista.com/inmueble/87626826/
5,Calle del Poeta Cabanyes,2,es,,flat,Sants-Montjuïc,True,3-VST035,2,False,False,False,False,False,41.3715795,2.1644452,Barcelona,El Poble Sec - Parc de Montjuïc,False,,16,sale,,,,235000.0,3561.0,87626604,flat,Barcelona,2,False,66.0,renew,"El Poble Sec - Parc de Montjuïc, Barcelona",Piso en Calle del Poeta Cabanyes,https://img3.idealista.com/blur/WEB_LISTING/0/id.pro.es.image.master/95/9a/2a/749333904.jpg,https://www.idealista.com/inmueble/87626604/
6,Avenida Diagonal,1,es,,flat,Sarrià-Sant Gervasi,True,VB1911014,2,False,False,True,False,True,41.3954846,2.1516901,Barcelona,Sant Gervasi - Galvany,False,,20,sale,,,,398000.0,5307.0,87626532,flat,Barcelona,2,False,75.0,good,"Sant Gervasi - Galvany, Barcelona",Piso en Avenida Diagonal,https://img3.idealista.com/blur/WEB_LISTING/0/id.pro.es.image.master/0e/7d/a4/761768170.jpg,https://www.idealista.com/inmueble/87626532/
7,Ronda del Guinardó,1,es,,flat,Gràcia,False,URB-082,2,False,False,True,False,False,41.4112318,2.1622248,Barcelona,La Salut,False,,20,sale,,,,295000.0,3688.0,87625838,flat,Barcelona,3,False,80.0,,"La Salut, Barcelona",Piso en Ronda del Guinardó,https://img3.idealista.com/blur/WEB_LISTING/0/id.pro.es.image.master/39/12/cd/726591139.jpg,https://www.idealista.com/inmueble/87625838/
8,"Calle Menorca, 200",1,es,,flat,Sant Martí,True,Sant Martí susana,3,False,False,True,False,False,41.4228665,2.2032848,Barcelona,La Verneda i la Pau,False,,8,sale,,,,250000.0,2500.0,87625207,flat,Barcelona,4,True,100.0,good,"La Verneda i la Pau, Barcelona","Piso en Calle Menorca, 200",https://img3.idealista.com/blur/WEB_LISTING/0/id.pro.es.image.master/8c/34/bb/726575100.jpg,https://www.idealista.com/inmueble/87625207/
9,Calle de Villarroel,3,es,,flat,Eixample,True,VB1911013,2,False,False,True,True,True,41.3831806,2.1599069,Barcelona,L'Antiga Esquerra de l'Eixample,False,,40,sale,,,,720000.0,5000.0,87624473,flat,Barcelona,3,False,144.0,good,"L'Antiga Esquerra de l'Eixample, Barcelona",Piso en Calle de Villarroel,https://img3.idealista.com/blur/WEB_LISTING/0/id.pro.es.image.master/90/f7/2b/761767892.jpg,https://www.idealista.com/inmueble/87624473/
10,Calle de Ribes,2,es,,flat,Eixample,True,2873,1,False,False,True,False,False,41.3914805,2.1792877,Barcelona,El Fort Pienc,False,,28,sale,True,True,,695000.0,4633.0,87624330,flat,Barcelona,4,False,150.0,good,"El Fort Pienc, Barcelona",Piso en Calle de Ribes,https://img3.idealista.com/blur/WEB_LISTING/0/id.pro.es.image.master/38/0f/2f/754569932.jpg,https://www.idealista.com/inmueble/87624330/
11,barrio El Gòtic,5,es,,flat,Ciutat Vella,True,PM-5662,4,False,False,True,False,False,41.3807827,2.1737327,Barcelona,El Gòtic,False,,22,sale,,,,1690000.0,7824.0,87623772,flat,Barcelona,3,False,216.0,good,"El Gòtic, Barcelona",Piso,https://img3.idealista.com/blur/WEB_LISTING/0/id.pro.es.image.master/92/7c/b2/726540162.jpg,https://www.idealista.com/inmueble/87623772/
12,Paseo de Sant Joan,2,es,,flat,Gràcia,True,LS011,1,False,False,True,False,False,41.3997949,2.166551,Barcelona,El Camp d'En Grassot i Gràcia Nova,False,,7,sale,,,,360000.0,4390.0,87623809,flat,Barcelona,4,False,82.0,,"El Camp d'En Grassot i Gràcia Nova, Barcelona",Piso en Paseo de Sant Joan,https://img3.idealista.com/blur/WEB_LISTING/0/id.pro.es.image.master/48/60/d1/726540222.jpg,https://www.idealista.com/inmueble/87623809/
13,barrio El Gòtic,2,es,,flat,Ciutat Vella,True,PM-5653,2,False,False,True,False,False,41.3809827,2.1745327,Barcelona,El Gòtic,False,,16,sale,,,,790000.0,7453.0,87623705,flat,Barcelona,2,False,106.0,good,"El Gòtic, Barcelona",Piso,https://img3.idealista.com/blur/WEB_LISTING/0/id.pro.es.image.master/85/bf/aa/726538196.jpg,https://www.idealista.com/inmueble/87623705/
14,Calle de Buenaventura Muñoz s/n,2,es,,flat,Sant Martí,False,NT91101,,False,False,,False,False,41.3922994,2.1857118,Barcelona,El Parc i la Llacuna del Poblenou,False,,14,sale,,,,450000.0,6000.0,87623640,flat,Barcelona,1,True,75.0,good,"El Parc i la Llacuna del Poblenou, Barcelona",Piso en Calle de Buenaventura Muñoz s/n,https://img3.idealista.com/blur/WEB_LISTING/0/id.pro.es.image.master/b8/bb/3f/726537114.jpg,https://www.idealista.com/inmueble/87623640/
15,barrio El Gòtic,2,es,,flat,Ciutat Vella,False,PM-5658,2,False,False,True,False,False,41.3824827,2.1736327,Barcelona,El Gòtic,False,,16,sale,,,,590000.0,8194.0,87623420,flat,Barcelona,2,False,72.0,good,"El Gòtic, Barcelona",Piso,https://img3.idealista.com/blur/WEB_LISTING/0/id.pro.es.image.master/28/63/38/726534308.jpg,https://www.idealista.com/inmueble/87623420/
16,Calle de València,1,es,,flat,Eixample,True,SLX0169,8,False,False,True,True,False,41.4052052,2.1832744,Barcelona,La Sagrada Família,False,,36,sale,,,,395000.0,4389.0,87623236,flat,Barcelona,3,False,90.0,good,"La Sagrada Família, Barcelona",Piso en Calle de València,https://img3.idealista.com/blur/WEB_LISTING/0/id.pro.es.image.master/f8/d4/44/726529931.jpg,https://www.idealista.com/inmueble/87623236/
17,barrio Pedralbes,6,es,,flat,Les Corts,True,VB1911012,1,False,False,True,True,True,41.3928236,2.1142478,Barcelona,Pedralbes,False,,40,sale,True,True,,2400000.0,7643.0,87623077,flat,Barcelona,5,False,314.0,good,"Pedralbes, Barcelona",Piso,https://img3.idealista.com/blur/WEB_LISTING/0/id.pro.es.image.master/38/c4/5d/761767774.jpg,https://www.idealista.com/inmueble/87623077/
18,Calle de la Indústria s/n,2,es,,flat,Eixample,True,Industria,3,False,False,True,False,False,41.4100623,2.1751193,Barcelona,La Sagrada Família,False,,1,sale,,,,485000.0,3880.0,87623237,flat,Barcelona,3,True,125.0,good,"La Sagrada Família, Barcelona",Piso en Calle de la Indústria s/n,https://img3.idealista.com/blur/WEB_LISTING/0/id.pro.es.image.master/38/76/60/726578134.jpg,https://www.idealista.com/inmueble/87623237/
19,Calle de Dalmases,4,es,,flat,Sarrià-Sant Gervasi,True,v00130-FOPR1,1,False,False,True,False,True,41.4015099,2.1307104,Barcelona,Les Tres Torres,False,,22,sale,True,True,,1290000.0,5733.0,87622993,flat,Barcelona,7,False,225.0,renew,"Les Tres Torres, Barcelona",Piso en Calle de Dalmases,https://img3.idealista.com/blur/WEB_LISTING/0/id.pro.es.image.master/2f/a7/08/726523960.jpg,https://www.idealista.com/inmueble/87622993/
20,Via Favència,1,es,penthouse,flat,Nou Barris,True,16V06,7,False,False,True,True,True,41.4454228,2.1857637,Barcelona,La Prosperitat,False,,19,sale,,,,183000.0,3000.0,87622736,penthouse,Barcelona,2,False,61.0,good,"La Prosperitat, Barcelona",Ático en Via Favència,https://img3.idealista.com/blur/WEB_LISTING/0/id.pro.es.image.master/9e/97/f4/763941717.jpg,https://www.idealista.com/inmueble/87622736/
21,Calle de València,1,es,,flat,Eixample,True,VH.VALENCIA540,7,False,False,True,False,False,41.4071052,2.1837744,Barcelona,La Sagrada Família,False,,52,sale,,,,385900.0,4288.0,87622436,flat,Barcelona,3,False,90.0,good,"La Sagrada Família, Barcelona",Piso en Calle de València,https://img3.idealista.com/blur/WEB_LISTING/0/id.pro.es.image.master/c4/42/48/726511838.jpg,https://www.idealista.com/inmueble/87622436/
22,barrio Pedralbes,1,es,penthouse,flat,Les Corts,True,PM-5236,8,False,False,True,False,False,41.3903641,2.1242005,Barcelona,Pedralbes,False,,15,sale,,,,460000.0,6301.0,87622389,penthouse,Barcelona,3,False,73.0,renew,"Pedralbes, Barcelona",Ático,https://img3.idealista.com/blur/WEB_LISTING/0/id.pro.es.image.master/fb/f3/1f/726510964.jpg,https://www.idealista.com/inmueble/87622389/
23,barrio Pedralbes,1,es,,flat,Les Corts,True,PM-6689,3,False,False,True,False,False,41.3915641,2.1275005,Barcelona,Pedralbes,False,,15,sale,,,,400000.0,6452.0,87622237,flat,Barcelona,3,False,62.0,renew,"Pedralbes, Barcelona",Piso,https://img3.idealista.com/blur/WEB_LISTING/0/id.pro.es.image.master/3b/45/89/726508103.jpg,https://www.idealista.com/inmueble/87622237/
24,Calle de Mallorca,1,es,,flat,Eixample,True,3451-01851,4,True,False,True,True,False,41.4048966,2.1755532,Barcelona,La Sagrada Família,False,,42,sale,,,,420000.0,5753.0,87610665,flat,Barcelona,2,False,73.0,good,"La Sagrada Família, Barcelona",Piso en Calle de Mallorca,https://img3.idealista.com/blur/WEB_LISTING/0/id.pro.es.image.master/88/e4/74/726140963.jpg,https://www.idealista.com/inmueble/87610665/
25,Calle de la Riera de Tena,1,es,,flat,Sants-Montjuïc,False,AND90,1,False,False,True,False,False,41.3689447,2.132651,Barcelona,La Bordeta,False,,11,sale,,,,215000.0,3071.0,87621044,flat,Barcelona,3,False,70.0,renew,"La Bordeta, Barcelona",Piso en Calle de la Riera de Tena,https://img3.idealista.com/blur/WEB_LISTING/0/id.pro.es.image.master/2f/35/c7/726475224.jpg,https://www.idealista.com/inmueble/87621044/
26,Calle de Pau Claris,2,es,,flat,Eixample,True,7622,2,False,False,True,False,False,41.3883189,2.1721589,Barcelona,La Dreta de l'Eixample,False,,41,sale,,,,650000.0,5556.0,81362675,flat,Barcelona,3,False,117.0,good,"La Dreta de l'Eixample, Barcelona",Piso en Calle de Pau Claris,https://img3.idealista.com/blur/WEB_LISTING/0/id.pro.es.image.master/9f/e4/8e/575443156.jpg,https://www.idealista.com/inmueble/81362675/
27,Calle de Valencia,1,es,,flat,Eixample,True,VP013SF,7,False,False,True,False,False,41.4047052,2.1809744,Barcelona,La Sagrada Família,False,,50,sale,,,,389900.0,4332.0,87620317,flat,Barcelona,3,False,90.0,good,"La Sagrada Família, Barcelona",Piso en Calle de Valencia,https://img3.idealista.com/blur/WEB_LISTING/0/id.pro.es.image.master/e4/69/a2/726460983.jpg,https://www.idealista.com/inmueble/87620317/
28,Calle de l'Hospital,1,es,penthouse,flat,Ciutat Vella,False,,4,False,False,False,True,False,41.37835,2.16632,Barcelona,El Raval,False,,16,sale,,,,160000.0,3200.0,39309200,penthouse,Barcelona,2,False,50.0,good,"El Raval, Barcelona",Ático en Calle de l'Hospital,https://img3.idealista.com/blur/WEB_LISTING/0/id.pro.es.image.master/8d/7c/3d/257575808.jpg,https://www.idealista.com/inmueble/39309200/
29,"Calle d'Aragó, 63",2,es,,flat,Eixample,False,1123,6,True,False,True,False,False,41.3808886,2.1496622,Barcelona,La Nova Esquerra de l'Eixample,False,,38,sale,,,,375000.0,4213.0,87615367,flat,Barcelona,3,True,89.0,good,"La Nova Esquerra de l'Eixample, Barcelona","Piso en Calle d'Aragó, 63",https://img3.idealista.com/blur/WEB_LISTING/0/id.pro.es.image.master/2a/7c/bb/726276342.jpg,https://www.idealista.com/inmueble/87615367/
30,"marques campo sagrado, 12",2,es,penthouse,flat,Eixample,True,BCN-000110,7,False,False,True,False,True,41.3756849,2.1639888,Barcelona,Sant Antoni,False,,23,sale,,,,470000.0,4700.0,87618145,penthouse,Barcelona,3,True,100.0,good,"Sant Antoni, Barcelona","Ático en marques campo sagrado, 12",https://img3.idealista.com/blur/WEB_LISTING/0/id.pro.es.image.master/87/7b/d1/759621196.jpg,https://www.idealista.com/inmueble/87618145/
31,barrio Les Tres Torres,1,es,,flat,Sarrià-Sant Gervasi,True,2019_35,1,False,False,True,False,False,41.400556,2.1322935,Barcelona,Les Tres Torres,False,,10,sale,,,,595000.0,7000.0,87617969,flat,Barcelona,2,False,85.0,,"Les Tres Torres, Barcelona",Piso,https://img3.idealista.com/blur/WEB_LISTING/0/id.pro.es.image.master/66/dd/06/726366794.jpg,https://www.idealista.com/inmueble/87617969/
32,barrio El Gòtic,4,es,,flat,Ciutat Vella,False,BCNP2835,,False,False,True,False,False,41.3811827,2.1741327,Barcelona,El Gòtic,False,,43,sale,,,,1690000.0,7860.0,87467137,flat,Barcelona,3,False,215.0,good,"El Gòtic, Barcelona",Piso,https://img3.idealista.com/blur/WEB_LISTING/0/id.pro.es.image.master/ca/69/2e/742084979.jpg,https://www.idealista.com/inmueble/87467137/
33,barrio Sant Pere - Santa Caterina i la Ribera,3,es,,flat,Ciutat Vella,False,BCNP2807,,False,False,True,False,False,41.3860342,2.1785706,Barcelona,Sant Pere - Santa Caterina i la Ribera,False,,21,sale,,,,1380000.0,9200.0,87617021,flat,Barcelona,3,False,150.0,good,"Sant Pere - Santa Caterina i la Ribera, Barcelona",Piso,https://img3.idealista.com/blur/WEB_LISTING/0/id.pro.es.image.master/c5/ce/3d/726334488.jpg,https://www.idealista.com/inmueble/87617021/
34,Ronda de la Guineueta Vella,1,es,,flat,Nou Barris,True,001079,6,False,False,True,False,False,41.4467914,2.16582,Barcelona,Les Roquetes - Canyelles,False,,11,sale,,,,168000.0,2182.0,87616910,flat,Barcelona,3,False,77.0,good,"Les Roquetes - Canyelles, Barcelona",Piso en Ronda de la Guineueta Vella,https://img3.idealista.com/blur/WEB_LISTING/0/id.pro.es.image.master/2f/6a/32/744536579.jpg,https://www.idealista.com/inmueble/87616910/
35,Calle de Roger de Flor,2,es,,flat,Eixample,False,001982,5,False,False,True,False,False,41.392863,2.176616,Barcelona,El Fort Pienc,False,,24,sale,,,,450000.0,4945.0,87616916,flat,Barcelona,3,False,91.0,good,"El Fort Pienc, Barcelona",Piso en Calle de Roger de Flor,https://img3.idealista.com/blur/WEB_LISTING/0/id.pro.es.image.master/72/dd/d9/726332488.jpg,https://www.idealista.com/inmueble/87616916/
36,Calle de Còrsega,2,es,,flat,Eixample,False,AB-1914,8,False,False,True,True,False,41.382631,2.1425363,Barcelona,La Nova Esquerra de l'Eixample,False,,27,sale,,,,520000.0,6667.0,87616688,flat,Barcelona,1,False,78.0,,"La Nova Esquerra de l'Eixample, Barcelona",Piso en Calle de Còrsega,https://img3.idealista.com/blur/WEB_LISTING/0/id.pro.es.image.master/f9/44/18/726326372.jpg,https://www.idealista.com/inmueble/87616688/
37,barrio Sant Andreu,2,es,,flat,Sant Andreu,False,LH-02575,en,False,False,True,False,False,41.4357608,2.1856544,Barcelona,Sant Andreu,False,,23,sale,True,True,,315000.0,3663.0,87616698,flat,Barcelona,4,False,86.0,,"Sant Andreu, Barcelona",Piso,https://img3.idealista.com/blur/WEB_LISTING/0/id.pro.es.image.master/8b/7f/8d/726326252.jpg,https://www.idealista.com/inmueble/87616698/
38,Paseo de Manuel Girona,2,es,,flat,Les Corts,True,AG4143_002159-69,1,False,False,True,False,False,41.3927245,2.1248464,Barcelona,Pedralbes,False,,7,sale,,,,450000.0,4737.0,87616643,flat,Barcelona,3,False,95.0,good,"Pedralbes, Barcelona",Piso en Paseo de Manuel Girona,https://img3.idealista.com/blur/WEB_LISTING/0/id.pro.es.image.master/58/80/4e/726326165.jpg,https://www.idealista.com/inmueble/87616643/
39,barrio Pedralbes,7,es,independantHouse,chalet,Les Corts,False,NVK1236,,False,False,,False,False,41.3878899,2.1111354,Barcelona,Pedralbes,False,,2,sale,True,True,,3500000.0,5738.0,87616509,chalet,Barcelona,6,False,610.0,good,"Pedralbes, Barcelona",Casa independiente,https://img3.idealista.com/blur/WEB_LISTING/0/id.pro.es.image.master/fd/5b/39/726321902.jpg,https://www.idealista.com/inmueble/87616509/
40,Calle del Capità Arenas,1,es,,flat,Sarrià-Sant Gervasi,True,VK0560-1,8,False,False,True,False,False,41.3950084,2.1234696,Barcelona,Sarrià,False,,16,sale,,,,460000.0,6053.0,87615992,flat,Barcelona,3,False,76.0,renew,"Sarrià, Barcelona",Piso en Calle del Capità Arenas,https://img3.idealista.com/blur/WEB_LISTING/0/id.pro.es.image.master/ed/25/06/726300768.jpg,https://www.idealista.com/inmueble/87615992/
41,barrio La Nova Esquerra de l'Eixample,1,es,penthouse,flat,Eixample,True,B06655BA,8,False,False,True,True,True,41.384631,2.1443363,Barcelona,La Nova Esquerra de l'Eixample,False,,20,sale,,,,470000.0,6026.0,87615830,penthouse,Barcelona,2,False,78.0,,"La Nova Esquerra de l'Eixample, Barcelona",Ático,https://img3.idealista.com/blur/WEB_LISTING/0/id.pro.es.image.master/2c/ef/d4/726295671.jpg,https://www.idealista.com/inmueble/87615830/
42,Calle Francesc Pérez Cabrero,3,es,,flat,Sarrià-Sant Gervasi,True,37552,1,False,False,True,False,False,41.3936229,2.1404536,Barcelona,Sant Gervasi - Galvany,False,,19,sale,True,True,,2600000.0,4906.0,87615265,flat,Barcelona,7,False,530.0,renew,"Sant Gervasi - Galvany, Barcelona",Piso en Calle Francesc Pérez Cabrero,https://img3.idealista.com/blur/WEB_LISTING/0/id.pro.es.image.master/07/af/d4/726273151.jpg,https://www.idealista.com/inmueble/87615265/
43,Trafalgar,2,es,duplex,flat,Eixample,True,68780,4,False,False,True,True,False,41.3895919,2.1770928,Barcelona,La Dreta de l'Eixample,False,,16,sale,,,,1400000.0,7000.0,87614998,duplex,Barcelona,2,False,200.0,good,"La Dreta de l'Eixample, Barcelona",Dúplex en Trafalgar,https://img3.idealista.com/blur/WEB_LISTING/0/id.pro.es.image.master/5b/65/ce/726267431.jpg,https://www.idealista.com/inmueble/87614998/
44,Trafalgar,2,es,,flat,Eixample,True,68775,2,False,False,True,True,False,41.3900919,2.1792928,Barcelona,La Dreta de l'Eixample,False,,16,sale,,,,875000.0,8413.0,87614583,flat,Barcelona,2,False,104.0,good,"La Dreta de l'Eixample, Barcelona",Piso en Trafalgar,https://img3.idealista.com/blur/WEB_LISTING/0/id.pro.es.image.master/d8/4c/e3/726262660.jpg,https://www.idealista.com/inmueble/87614583/
45,Trafalgar,2,es,,flat,Eixample,True,68389,2,False,False,True,True,False,41.3905919,2.1788928,Barcelona,La Dreta de l'Eixample,False,,17,sale,,,,850000.0,8173.0,87614533,flat,Barcelona,2,False,104.0,good,"La Dreta de l'Eixample, Barcelona",Piso en Trafalgar,https://img3.idealista.com/blur/WEB_LISTING/0/id.pro.es.image.master/23/92/bf/726257277.jpg,https://www.idealista.com/inmueble/87614533/
46,Trafalgar,2,es,,flat,Eixample,True,68772,1,False,False,True,True,False,41.3885919,2.1761928,Barcelona,La Dreta de l'Eixample,False,,16,sale,,,,815000.0,7837.0,87614177,flat,Barcelona,2,False,104.0,good,"La Dreta de l'Eixample, Barcelona",Piso en Trafalgar,https://img3.idealista.com/blur/WEB_LISTING/0/id.pro.es.image.master/9e/b5/e8/726248048.jpg,https://www.idealista.com/inmueble/87614177/
47,Calle Trafalgar,2,es,,flat,Eixample,True,68306,en,False,False,True,True,False,41.3911919,2.1761928,Barcelona,La Dreta de l'Eixample,False,,16,sale,,,,699000.0,6721.0,87613915,flat,Barcelona,2,False,104.0,good,"La Dreta de l'Eixample, Barcelona",Piso en Calle Trafalgar,https://img3.idealista.com/blur/WEB_LISTING/0/id.pro.es.image.master/0f/44/a4/726233430.jpg,https://www.idealista.com/inmueble/87613915/
48,Calle de Pelai,2,es,,flat,Eixample,True,2773,3,False,False,True,True,True,41.3869201,2.1681699,Barcelona,La Dreta de l'Eixample,False,,25,sale,,,,850000.0,4885.0,87612724,flat,Barcelona,4,False,174.0,good,"La Dreta de l'Eixample, Barcelona",Piso en Calle de Pelai,https://img3.idealista.com/blur/WEB_LISTING/0/id.pro.es.image.master/e3/86/36/754570922.jpg,https://www.idealista.com/inmueble/87612724/
49,Calle Casanova s/n,3,es,,flat,Eixample,True,,4,False,False,True,False,False,41.3849347,2.1592913,Barcelona,L'Antiga Esquerra de l'Eixample,False,,15,sale,,,,430000.0,5375.0,87612212,flat,Barcelona,3,True,80.0,good,"L'Antiga Esquerra de l'Eixample, Barcelona",Piso en Calle Casanova s/n,https://img3.idealista.com/blur/WEB_LISTING/0/id.pro.es.image.master/c8/ec/9e/726175107.jpg,https://www.idealista.com/inmueble/87612212/
0,Calle del Canonge Pibernat,3,es,terracedHouse,chalet,Sants-Montjuïc,False,CANONGE,,False,False,,False,False,41.3777965,2.1284981,Barcelona,Sants - Badal,False,,20,sale,True,True,,998000.0,3327.0,87611616,chalet,Barcelona,4,False,300.0,good,"Sants - Badal, Barcelona",Chalet adosado en Calle del Canonge Pibernat,https://img3.idealista.com/blur/WEB_LISTING/0/id.pro.es.image.master/c5/db/5c/726166226.jpg,https://www.idealista.com/inmueble/87611616/
1,Calle de la Foneria,2,es,,flat,Sants-Montjuïc,True,2454,5,False,False,True,False,False,41.3597368,2.1412196,Barcelona,La Marina del Port,False,,11,sale,,,,275000.0,2750.0,87612285,flat,Barcelona,4,False,100.0,renew,"La Marina del Port, Barcelona",Piso en Calle de la Foneria,https://img3.idealista.com/blur/WEB_LISTING/0/id.pro.es.image.master/96/49/c7/726176149.jpg,https://www.idealista.com/inmueble/87612285/
2,Calle de València,1,es,,flat,Eixample,False,3057,,False,False,True,False,False,41.4084052,2.1798744,Barcelona,La Sagrada Família,False,,52,sale,,,,389900.0,4332.0,87612349,flat,Barcelona,3,False,90.0,,"La Sagrada Família, Barcelona",Piso en Calle de València,https://img3.idealista.com/blur/WEB_LISTING/0/id.pro.es.image.master/3e/24/8f/754725182.jpg,https://www.idealista.com/inmueble/87612349/
3,barrio El Poblenou,3,es,,flat,Sant Martí,False,W-02DE63,1,False,False,True,False,False,41.4005406,2.2019715,Barcelona,El Poblenou,False,,43,sale,,,,500000.0,3846.0,87611227,flat,Barcelona,2,False,130.0,good,"El Poblenou, Barcelona",Piso,https://img3.idealista.com/blur/WEB_LISTING/0/id.pro.es.image.master/b5/07/ec/755920424.jpg,https://www.idealista.com/inmueble/87611227/
4,Calle de Benet Mateu,2,es,,flat,Sarrià-Sant Gervasi,True,CHV499,1,False,False,True,True,True,41.3925255,2.1241025,Barcelona,Sarrià,False,,19,sale,,,,430000.0,3981.0,87610544,flat,Barcelona,4,False,108.0,good,"Sarrià, Barcelona",Piso en Calle de Benet Mateu,https://img3.idealista.com/blur/WEB_LISTING/0/id.pro.es.image.master/ca/4d/85/736687466.jpg,https://www.idealista.com/inmueble/87610544/
5,"Calle de Vistalegre, 10",2,es,,flat,Ciutat Vella,True,A13165,3,False,False,False,False,False,41.378785,2.1667545,Barcelona,El Raval,False,,16,sale,,,,209000.0,3215.0,87610097,flat,Barcelona,1,True,65.0,good,"El Raval, Barcelona","Piso en Calle de Vistalegre, 10",https://img3.idealista.com/blur/WEB_LISTING/0/id.pro.es.image.master/2e/a8/3d/726125556.jpg,https://www.idealista.com/inmueble/87610097/
6,Calle de la Independència,1,es,,flat,Sant Martí,False,VM-INDEPENDENCIA,,False,False,,False,False,41.4050453,2.1866802,Barcelona,El Clot,False,,20,sale,,,,260000.0,3171.0,87609573,flat,Barcelona,2,False,82.0,,"El Clot, Barcelona",Piso en Calle de la Independència,https://img3.idealista.com/blur/WEB_LISTING/0/id.pro.es.image.master/31/0a/c6/726113952.jpg,https://www.idealista.com/inmueble/87609573/
7,barrio Navas,1,es,penthouse,flat,Sant Andreu,True,108576,6,False,False,True,True,False,41.4200435,2.1820217,Barcelona,Navas,False,,31,sale,,,,240000.0,3582.0,87609476,penthouse,Barcelona,3,False,67.0,good,"Navas, Barcelona",Ático,https://img3.idealista.com/blur/WEB_LISTING/0/id.pro.es.image.master/66/b4/9c/726111668.jpg,https://www.idealista.com/inmueble/87609476/
8,Calle de Còrsega,1,es,,flat,Eixample,True,CORSEGA,4,False,False,True,False,False,41.3864694,2.1475244,Barcelona,La Nova Esquerra de l'Eixample,False,,23,sale,,,,385000.0,4231.0,87609372,flat,Barcelona,4,False,91.0,good,"La Nova Esquerra de l'Eixample, Barcelona",Piso en Calle de Còrsega,https://img3.idealista.com/blur/WEB_LISTING/0/id.pro.es.image.master/d6/e9/63/726109615.jpg,https://www.idealista.com/inmueble/87609372/
9,Avenida del Paralelo,1,es,,flat,Eixample,True,ALB-00162,5,False,False,True,False,False,41.3735943,2.1659833,Barcelona,Sant Antoni,False,,19,sale,,,,440000.0,4889.0,87609351,flat,Barcelona,3,False,90.0,good,"Sant Antoni, Barcelona",Piso en Avenida del Paralelo,https://img3.idealista.com/blur/WEB_LISTING/0/id.pro.es.image.master/fb/3a/fd/726108790.jpg,https://www.idealista.com/inmueble/87609351/
10,"Calle de Freixures, 10",1,es,,flat,Ciutat Vella,True,,1,False,False,False,False,False,41.3866414,2.1771957,Barcelona,Sant Pere - Santa Caterina i la Ribera,False,,14,sale,,,,300000.0,4286.0,87609246,flat,Barcelona,3,True,70.0,good,"Sant Pere - Santa Caterina i la Ribera, Barcelona","Piso en Calle de Freixures, 10",https://img3.idealista.com/blur/WEB_LISTING/0/id.pro.es.image.master/42/b6/30/726106390.jpg,https://www.idealista.com/inmueble/87609246/
11,Calle de la Dagueria,1,es,,flat,Ciutat Vella,True,dagueria,3,False,False,False,False,False,41.3849586,2.1778153,Barcelona,El Gòtic,False,,17,sale,,,,340000.0,3238.0,87608811,flat,Barcelona,3,False,105.0,good,"El Gòtic, Barcelona",Piso en Calle de la Dagueria,https://img3.idealista.com/blur/WEB_LISTING/0/id.pro.es.image.master/e8/a6/6f/726098595.jpg,https://www.idealista.com/inmueble/87608811/
12,barrio La Barceloneta,1,es,,flat,Ciutat Vella,False,0568,2,False,False,False,False,False,41.380766,2.1914653,Barcelona,La Barceloneta,False,,10,sale,,,,295000.0,4338.0,87608471,flat,Barcelona,3,False,68.0,good,"La Barceloneta, Barcelona",Piso,https://img3.idealista.com/blur/WEB_LISTING/0/id.pro.es.image.master/c5/e0/8d/726082524.jpg,https://www.idealista.com/inmueble/87608471/
13,"Calle de Sant Rafael, 31 -25",1,es,,flat,Ciutat Vella,False,RAV190-5,3,False,False,False,False,False,41.3785418,2.168551,Barcelona,El Raval,False,,9,sale,,,,250000.0,3906.0,87608276,flat,Barcelona,2,True,64.0,good,"El Raval, Barcelona","Piso en Calle de Sant Rafael, 31 -25",https://img3.idealista.com/blur/WEB_LISTING/0/id.pro.es.image.master/3d/97/11/726077356.jpg,https://www.idealista.com/inmueble/87608276/
14,"Calle de les Trompetes, 3 -1",2,es,,flat,Ciutat Vella,False,BOR190-7,3,False,False,True,False,False,41.3826826,2.1819429,Barcelona,Sant Pere - Santa Caterina i la Ribera,False,,12,sale,,,,430000.0,4433.0,87608275,flat,Barcelona,2,True,97.0,good,"Sant Pere - Santa Caterina i la Ribera, Barcelona","Piso en Calle de les Trompetes, 3 -1",https://img3.idealista.com/blur/WEB_LISTING/0/id.pro.es.image.master/be/12/fd/726077247.jpg,https://www.idealista.com/inmueble/87608275/
15,"Calle de Trafalgar, 2 -24",2,es,,flat,Ciutat Vella,False,EIR190-10,6,False,False,True,True,False,41.3889503,2.1748196,Barcelona,Sant Pere - Santa Caterina i la Ribera,False,,19,sale,,,,798000.0,4156.0,87608254,flat,Barcelona,5,True,192.0,good,"Sant Pere - Santa Caterina i la Ribera, Barcelona","Piso en Calle de Trafalgar, 2 -24",https://img3.idealista.com/blur/WEB_LISTING/0/id.pro.es.image.master/fe/14/09/726077140.jpg,https://www.idealista.com/inmueble/87608254/
16,Calle de Sant Gil,1,es,,flat,Ciutat Vella,True,RP207201963866,2,False,False,False,False,False,41.3822133,2.163912,Barcelona,El Raval,False,,10,sale,,,,175000.0,3646.0,87608169,flat,Barcelona,3,False,48.0,renew,"El Raval, Barcelona",Piso en Calle de Sant Gil,https://img3.idealista.com/blur/WEB_LISTING/0/id.pro.es.image.master/cc/90/be/726075079.jpg,https://www.idealista.com/inmueble/87608169/
17,gran via de les corts catalanas,1,es,,flat,Sants-Montjuïc,True,,1,False,False,True,True,True,41.3662603,2.1358124,Barcelona,La Bordeta,False,,17,sale,,,,278000.0,3475.0,87607973,flat,Barcelona,3,False,80.0,good,"La Bordeta, Barcelona",Piso en gran via de les corts catalanas,https://img3.idealista.com/blur/WEB_LISTING/0/id.pro.es.image.master/19/37/f7/726071489.jpg,https://www.idealista.com/inmueble/87607973/
18,Calle d'Arnau d'Oms s/n,1,es,,flat,Nou Barris,False,virei,1,False,False,True,False,True,41.4295133,2.1773419,Barcelona,Vilapicina i la Torre Llobeta,False,,17,sale,,,,159000.0,3533.0,87607732,flat,Barcelona,2,True,45.0,good,"Vilapicina i la Torre Llobeta, Barcelona",Piso en Calle d'Arnau d'Oms s/n,https://img3.idealista.com/blur/WEB_LISTING/0/id.pro.es.image.master/85/ea/65/726059562.jpg,https://www.idealista.com/inmueble/87607732/
19,barrio L'Antiga Esquerra de l'Eixample,2,es,,flat,Eixample,True,BV-932019,2,False,False,True,False,False,41.3936477,2.1458176,Barcelona,L'Antiga Esquerra de l'Eixample,False,,0,sale,,,,330000.0,3750.0,83452457,flat,Barcelona,3,False,88.0,renew,"L'Antiga Esquerra de l'Eixample, Barcelona",Piso,,https://www.idealista.com/inmueble/83452457/
20,barrio Sant Gervasi - Galvany,3,es,,flat,Sarrià-Sant Gervasi,True,BV-912019,4,False,False,True,False,False,41.3947883,2.1430209,Barcelona,Sant Gervasi - Galvany,False,,31,sale,,,,990000.0,6828.0,83241282,flat,Barcelona,3,False,145.0,good,"Sant Gervasi - Galvany, Barcelona",Piso,https://img3.idealista.com/blur/WEB_LISTING/0/id.pro.es.image.master/42/94/e2/614222326.jpg,https://www.idealista.com/inmueble/83241282/
21,Calle del Concili de Trento,1,es,,flat,Sant Martí,True,GEIMSU00216,1,False,False,True,False,False,41.4149893,2.1962381,Barcelona,Sant Martí de Provençals,False,,29,sale,,,,205000.0,3106.0,87605556,flat,Barcelona,3,False,66.0,good,"Sant Martí de Provençals, Barcelona",Piso en Calle del Concili de Trento,https://img3.idealista.com/blur/WEB_LISTING/0/id.pro.es.image.master/82/87/7d/746471708.jpg,https://www.idealista.com/inmueble/87605556/
22,barrio Sarrià,4,es,,chalet,Sarrià-Sant Gervasi,False,VB1911009,,False,False,,False,True,41.4074092,2.1208308,Barcelona,Sarrià,False,,54,sale,True,True,,2900000.0,4731.0,87604461,chalet,Barcelona,4,False,613.0,good,"Sarrià, Barcelona",Chalet,https://img3.idealista.com/blur/WEB_LISTING/0/id.pro.es.image.master/ed/53/24/761767602.jpg,https://www.idealista.com/inmueble/87604461/
23,Calle de Bailèn,2,es,,flat,Eixample,True,VB1911008,3,False,False,True,False,True,41.3940603,2.1756888,Barcelona,La Dreta de l'Eixample,False,,28,sale,,,,760000.0,5588.0,87603335,flat,Barcelona,5,False,136.0,good,"La Dreta de l'Eixample, Barcelona",Piso en Calle de Bailèn,https://img3.idealista.com/blur/WEB_LISTING/0/id.pro.es.image.master/82/db/29/761767514.jpg,https://www.idealista.com/inmueble/87603335/
24,barrio El Raval,2,es,,flat,Ciutat Vella,True,2114v,3,False,False,True,True,True,41.3792502,2.1747101,Barcelona,El Raval,False,,29,sale,,,,395000.0,3591.0,39921755,flat,Barcelona,3,False,110.0,good,"El Raval, Barcelona",Piso,https://img3.idealista.com/blur/WEB_LISTING/0/id.pro.es.image.master/78/a7/5d/269323165.jpg,https://www.idealista.com/inmueble/39921755/
25,Calle de la Riera de Tena,1,es,,flat,Sants-Montjuïc,True,BVCP3583,1,False,False,True,False,True,41.3703447,2.134351,Barcelona,La Bordeta,False,,21,sale,,,,224000.0,3294.0,87602354,flat,Barcelona,3,False,68.0,renew,"La Bordeta, Barcelona",Piso en Calle de la Riera de Tena,https://img3.idealista.com/blur/WEB_LISTING/0/id.pro.es.image.master/7d/47/a6/725933804.jpg,https://www.idealista.com/inmueble/87602354/
26,Calle del General Álvarez de Castro,1,es,,flat,Ciutat Vella,False,145CAPI_inmo_01948_,1,False,False,True,False,False,41.3857647,2.1781237,Barcelona,Sant Pere - Santa Caterina i la Ribera,False,,14,sale,,,,330000.0,3837.0,87602096,flat,Barcelona,2,False,86.0,good,"Sant Pere - Santa Caterina i la Ribera, Barcelona",Piso en Calle del General Álvarez de Castro,https://img3.idealista.com/blur/WEB_LISTING/0/id.pro.es.image.master/fc/72/59/725928210.jpg,https://www.idealista.com/inmueble/87602096/
27,barrio Sant Gervasi - Galvany,5,es,duplex,flat,Sarrià-Sant Gervasi,True,1185,,False,False,True,True,False,41.3988084,2.139011,Barcelona,Sant Gervasi - Galvany,False,,38,sale,True,True,,2100000.0,5833.0,87601932,duplex,Barcelona,5,False,360.0,good,"Sant Gervasi - Galvany, Barcelona",Dúplex,https://img3.idealista.com/blur/WEB_LISTING/0/id.pro.es.image.master/60/79/da/725926008.jpg,https://www.idealista.com/inmueble/87601932/
28,Sant Roc,1,es,,flat,Sants-Montjuïc,True,039-7221,bj,False,False,False,True,False,41.3736797,2.1454232,Barcelona,Hostafrancs,False,,20,sale,,,,180000.0,2571.0,87601887,flat,Barcelona,2,False,70.0,renew,"Hostafrancs, Barcelona",Piso en Sant Roc,https://img3.idealista.com/blur/WEB_LISTING/0/id.pro.es.image.master/f8/fc/e4/725914241.jpg,https://www.idealista.com/inmueble/87601887/
29,barrio La Nova Esquerra de l'Eixample,6,es,penthouse,flat,Eixample,True,BCN21193,,True,False,True,True,False,41.3843004,2.1499029,Barcelona,La Nova Esquerra de l'Eixample,False,,42,sale,True,True,,1890000.0,5625.0,87601397,penthouse,Barcelona,6,False,336.0,good,"La Nova Esquerra de l'Eixample, Barcelona",Ático,https://img3.idealista.com/blur/WEB_LISTING/0/id.pro.es.image.master/4b/82/2b/725850873.jpg,https://www.idealista.com/inmueble/87601397/
30,barrio La Dreta de l'Eixample,2,es,,flat,Eixample,True,BCN21282,,True,False,True,True,False,41.3954624,2.1662727,Barcelona,La Dreta de l'Eixample,False,,30,sale,,,,995000.0,6723.0,87601395,flat,Barcelona,3,False,148.0,good,"La Dreta de l'Eixample, Barcelona",Piso,https://img3.idealista.com/blur/WEB_LISTING/0/id.pro.es.image.master/5b/34/3e/725850771.jpg,https://www.idealista.com/inmueble/87601395/
31,barrio Pedralbes,3,es,terracedHouse,chalet,Les Corts,False,W-02AASQ,bj,False,False,,False,False,41.3891849,2.104572,Barcelona,Pedralbes,False,,37,sale,True,True,,925000.0,5000.0,87601259,chalet,Barcelona,5,False,185.0,good,"Pedralbes, Barcelona",Chalet adosado,https://img3.idealista.com/blur/WEB_LISTING/0/id.pro.es.image.master/84/be/77/756022654.jpg,https://www.idealista.com/inmueble/87601259/
32,Calle de Còrsega,1,es,,flat,Eixample,True,AB-1913,4,False,False,True,False,False,41.382631,2.1422363,Barcelona,La Nova Esquerra de l'Eixample,False,,20,sale,,,,395000.0,5064.0,87600256,flat,Barcelona,2,False,78.0,good,"La Nova Esquerra de l'Eixample, Barcelona",Piso en Calle de Còrsega,https://img3.idealista.com/blur/WEB_LISTING/0/id.pro.es.image.master/12/70/e1/725828710.jpg,https://www.idealista.com/inmueble/87600256/
33,Calle de Còrsega,1,es,,flat,Eixample,False,AB-1912,7,False,False,True,False,False,41.383431,2.1428363,Barcelona,La Nova Esquerra de l'Eixample,False,,24,sale,,,,420000.0,5455.0,87600222,flat,Barcelona,2,False,77.0,,"La Nova Esquerra de l'Eixample, Barcelona",Piso en Calle de Còrsega,https://img3.idealista.com/blur/WEB_LISTING/0/id.pro.es.image.master/01/c0/6a/725828455.jpg,https://www.idealista.com/inmueble/87600222/
34,Calle de Josep Estivill,2,es,,flat,Sant Andreu,False,AP080270015,7,False,False,True,True,False,41.4186271,2.1868705,Barcelona,Navas,False,,20,sale,,,,355000.0,4034.0,87600231,flat,Barcelona,4,False,88.0,,"Navas, Barcelona",Piso en Calle de Josep Estivill,https://img3.idealista.com/blur/WEB_LISTING/0/id.pro.es.image.master/90/83/85/725828269.jpg,https://www.idealista.com/inmueble/87600231/
35,Calle de Vilamarí,1,es,,flat,Eixample,False,AP080150010,,False,False,True,False,False,41.377036,2.1493827,Barcelona,La Nova Esquerra de l'Eixample,False,,20,sale,,,,415000.0,5188.0,87600212,flat,Barcelona,2,False,80.0,,"La Nova Esquerra de l'Eixample, Barcelona",Piso en Calle de Vilamarí,https://img3.idealista.com/blur/WEB_LISTING/0/id.pro.es.image.master/e2/49/f1/725827912.jpg,https://www.idealista.com/inmueble/87600212/
36,Calle de Josep Pla,2,es,,flat,Sant Martí,False,AP08019003,,False,False,True,False,False,41.4101841,2.2149492,Barcelona,Diagonal Mar i el Front Marítim del Poblenou,False,,19,sale,True,True,,1530000.0,13304.0,87600192,flat,Barcelona,2,False,115.0,,"Diagonal Mar i el Front Marítim del Poblenou, Barcelona",Piso en Calle de Josep Pla,https://img3.idealista.com/blur/WEB_LISTING/0/id.pro.es.image.master/69/2c/61/725827795.jpg,https://www.idealista.com/inmueble/87600192/
37,Calle de Benet Mateu,2,es,,flat,Sarrià-Sant Gervasi,True,ETRIM-V-BM5,1,False,False,True,False,False,41.3937255,2.1251025,Barcelona,Sarrià,False,,19,sale,,,,430000.0,3981.0,87600151,flat,Barcelona,4,False,108.0,renew,"Sarrià, Barcelona",Piso en Calle de Benet Mateu,https://img3.idealista.com/blur/WEB_LISTING/0/id.pro.es.image.master/2f/44/98/725826938.jpg,https://www.idealista.com/inmueble/87600151/
38,barrio Sant Gervasi - La Bonanova,2,es,,flat,Sarrià-Sant Gervasi,True,233077,5,False,False,True,False,False,41.4015931,2.1317564,Barcelona,Sant Gervasi - La Bonanova,False,,35,sale,,,,750000.0,5000.0,87600132,flat,Barcelona,5,False,150.0,,"Sant Gervasi - La Bonanova, Barcelona",Piso,https://img3.idealista.com/blur/WEB_LISTING/0/id.pro.es.image.master/94/00/b9/732347725.jpg,https://www.idealista.com/inmueble/87600132/
39,barrio Sant Gervasi - La Bonanova,3,es,,flat,Sarrià-Sant Gervasi,True,233112,4,False,False,True,False,False,41.4078127,2.134435,Barcelona,Sant Gervasi - La Bonanova,False,,35,sale,True,True,,760000.0,5067.0,87600144,flat,Barcelona,5,False,150.0,,"Sant Gervasi - La Bonanova, Barcelona",Piso,https://img3.idealista.com/blur/WEB_LISTING/0/id.pro.es.image.master/f4/7c/a8/734481731.jpg,https://www.idealista.com/inmueble/87600144/
40,Calle de Calderón de la Barca,1,es,penthouse,flat,Horta Guinardó,True,914,7,False,False,True,False,False,41.4214535,2.1536918,Barcelona,El Carmel,False,,24,sale,,,,295000.0,3105.0,85356592,penthouse,Barcelona,2,False,95.0,good,"El Carmel, Barcelona",Ático en Calle de Calderón de la Barca,https://img3.idealista.com/blur/WEB_LISTING/0/id.pro.es.image.master/72/9c/ba/725815879.jpg,https://www.idealista.com/inmueble/85356592/
41,barrio Diagonal Mar i el Front Marítim del Poblenou,2,es,,flat,Sant Martí,True,GH01047,4,False,False,True,False,False,41.4064697,2.2113623,Barcelona,Diagonal Mar i el Front Marítim del Poblenou,False,,19,sale,True,True,,740000.0,6549.0,87270646,flat,Barcelona,2,False,113.0,good,"Diagonal Mar i el Front Marítim del Poblenou, Barcelona",Piso,https://img3.idealista.com/blur/WEB_LISTING/0/id.pro.es.image.master/e1/b8/6e/729750259.jpg,https://www.idealista.com/inmueble/87270646/
42,Calle de Còrsega,1,es,,flat,Eixample,False,ISBLG070,6,False,False,True,False,False,41.4050791,2.17285,Barcelona,La Sagrada Família,False,,33,sale,,,,390000.0,4588.0,87599194,flat,Barcelona,4,False,85.0,good,"La Sagrada Família, Barcelona",Piso en Calle de Còrsega,https://img3.idealista.com/blur/WEB_LISTING/0/id.pro.es.image.master/52/5f/9d/725794809.jpg,https://www.idealista.com/inmueble/87599194/
43,barrio Sant Gervasi - Galvany,5,es,,flat,Sarrià-Sant Gervasi,False,HELV0227,6,False,False,True,False,False,41.3947363,2.1390153,Barcelona,Sant Gervasi - Galvany,False,,28,sale,True,True,,1390000.0,5792.0,87598856,flat,Barcelona,5,False,240.0,good,"Sant Gervasi - Galvany, Barcelona",Piso,https://img3.idealista.com/blur/WEB_LISTING/0/id.pro.es.image.master/44/f3/54/739013503.jpg,https://www.idealista.com/inmueble/87598856/
44,barrio Sant Gervasi - Galvany,4,es,duplex,flat,Sarrià-Sant Gervasi,True,HELV0226,7,False,False,True,False,False,41.3972059,2.1409769,Barcelona,Sant Gervasi - Galvany,False,,39,sale,True,True,,2300000.0,4946.0,87598846,duplex,Barcelona,5,False,465.0,good,"Sant Gervasi - Galvany, Barcelona",Dúplex,https://img3.idealista.com/blur/WEB_LISTING/0/id.pro.es.image.master/b6/3c/e9/755787897.jpg,https://www.idealista.com/inmueble/87598846/
45,Calle del Peu de la Creu,2,es,,flat,Ciutat Vella,False,B-000145,en,False,False,True,True,False,41.3790559,2.1649927,Barcelona,El Raval,False,,20,sale,,,,355000.0,3550.0,87596960,flat,Barcelona,2,False,100.0,good,"El Raval, Barcelona",Piso en Calle del Peu de la Creu,https://img3.idealista.com/blur/WEB_LISTING/0/id.pro.es.image.master/91/57/07/725736532.jpg,https://www.idealista.com/inmueble/87596960/
46,Calle de Ganduxer,3,es,duplex,flat,Sarrià-Sant Gervasi,True,B-000146,2,False,False,True,True,False,41.3908337,2.1398603,Barcelona,Sant Gervasi - Galvany,False,,25,sale,,,,795000.0,3533.0,87596973,duplex,Barcelona,4,False,225.0,good,"Sant Gervasi - Galvany, Barcelona",Dúplex en Calle de Ganduxer,https://img3.idealista.com/blur/WEB_LISTING/0/id.pro.es.image.master/31/20/a9/732476825.jpg,https://www.idealista.com/inmueble/87596973/
47,barrio Vila de Gràcia,3,es,,flat,Gràcia,True,3958V,bj,True,False,False,False,False,41.404082,2.1542509,Barcelona,Vila de Gràcia,False,,26,sale,,,,1500000.0,8824.0,87596174,flat,Barcelona,4,False,170.0,good,"Vila de Gràcia, Barcelona",Piso,https://img3.idealista.com/blur/WEB_LISTING/0/id.pro.es.image.master/c7/f3/db/725718727.jpg,https://www.idealista.com/inmueble/87596174/
48,Calle Sicilia,1,es,,flat,Gràcia,False,SIC,1,False,False,True,False,True,41.4031431,2.1692629,Barcelona,El Camp d'En Grassot i Gràcia Nova,False,,21,sale,True,True,,354000.0,5710.0,87595808,flat,Barcelona,2,False,62.0,good,"El Camp d'En Grassot i Gràcia Nova, Barcelona",Piso en Calle Sicilia,https://img3.idealista.com/blur/WEB_LISTING/0/id.pro.es.image.master/b2/ac/46/725709263.jpg,https://www.idealista.com/inmueble/87595808/
49,"Paseo FABRA I PUIG,",2,es,,flat,Nou Barris,True,TS10172,2,False,False,True,False,False,41.4286325,2.1730974,Barcelona,Can Peguera - El Turó de la Peira,False,,32,sale,,,,329000.0,3656.0,87595723,flat,Barcelona,4,False,90.0,good,"Can Peguera - El Turó de la Peira, Barcelona","Piso en Paseo FABRA I PUIG,",https://img3.idealista.com/blur/WEB_LISTING/0/id.pro.es.image.master/9d/f3/9b/725708229.jpg,https://www.idealista.com/inmueble/87595723/
0,Calle de l'Aurora,1,es,duplex,flat,Ciutat Vella,False,,4,False,False,False,False,False,41.3807215,2.1661985,Barcelona,El Raval,False,,7,sale,,,,199900.0,3075.0,87595697,duplex,Barcelona,2,False,65.0,renew,"El Raval, Barcelona",Dúplex en Calle de l'Aurora,https://img3.idealista.com/blur/WEB_LISTING/0/id.pro.es.image.master/3a/99/61/725706230.jpg,https://www.idealista.com/inmueble/87595697/
1,barrio El Raval,1,es,,flat,Ciutat Vella,True,V-690,3,False,False,,False,False,41.3795321,2.164326,Barcelona,El Raval,False,,21,sale,,,,130000.0,2889.0,87595553,flat,Barcelona,3,False,45.0,renew,"El Raval, Barcelona",Piso,https://img3.idealista.com/blur/WEB_LISTING/0/id.pro.es.image.master/82/a3/7e/725703768.jpg,https://www.idealista.com/inmueble/87595553/
2,"PORTUGAL, 15",2,es,,flat,Sant Andreu,True,PORTUGALB1,bj,False,False,True,True,False,41.4219946,2.1902727,Barcelona,La Sagrera,False,,17,sale,,,,265000.0,3487.0,87595408,flat,Barcelona,2,True,76.0,good,"La Sagrera, Barcelona","Piso en PORTUGAL, 15",https://img3.idealista.com/blur/WEB_LISTING/90/id.pro.es.image.master/e6/02/60/725700460.jpg,https://www.idealista.com/inmueble/87595408/
3,"PORTUGAL, 15",1,es,,flat,Sant Andreu,True,PORTUGAL12,1,False,False,True,True,False,41.4255813,2.1916353,Barcelona,La Sagrera,False,,23,sale,True,False,22000.0,285000.0,3750.0,87595125,flat,Barcelona,2,True,76.0,good,"La Sagrera, Barcelona","Piso en PORTUGAL, 15",https://img3.idealista.com/blur/WEB_LISTING/0/id.pro.es.image.master/00/db/ae/762502234.jpg,https://www.idealista.com/inmueble/87595125/
4,Calle dels Còdols,2,es,penthouse,flat,Ciutat Vella,True,Codols,4,False,False,False,False,False,41.3803043,2.1764142,Barcelona,El Gòtic,False,,24,sale,,,,309000.0,4292.0,87590772,penthouse,Barcelona,3,False,72.0,renew,"El Gòtic, Barcelona",Ático en Calle dels Còdols,https://img3.idealista.com/blur/WEB_LISTING/0/id.pro.es.image.master/94/22/61/725722324.jpg,https://www.idealista.com/inmueble/87590772/
5,Calle de Aragón,2,es,,flat,Eixample,True,231505,4,False,False,True,False,False,41.3825649,2.1505106,Barcelona,La Nova Esquerra de l'Eixample,False,,22,sale,,,,485000.0,4042.0,87594360,flat,Barcelona,4,False,120.0,good,"La Nova Esquerra de l'Eixample, Barcelona",Piso en Calle de Aragón,https://img3.idealista.com/blur/WEB_LISTING/0/id.pro.es.image.master/b8/48/a5/725676107.jpg,https://www.idealista.com/inmueble/87594360/
6,Calle de la Diputació,3,es,,flat,Eixample,True,V31658,3,False,False,True,True,True,41.3864885,2.1623455,Barcelona,L'Antiga Esquerra de l'Eixample,False,,28,sale,,,,1275000.0,8615.0,87594048,flat,Barcelona,2,False,148.0,,"L'Antiga Esquerra de l'Eixample, Barcelona",Piso en Calle de la Diputació,https://img3.idealista.com/blur/WEB_LISTING/0/id.pro.es.image.master/95/5f/1d/725669960.jpg,https://www.idealista.com/inmueble/87594048/
7,Calle de la Diputació,3,es,,flat,Eixample,True,V31657,1,False,False,True,True,True,41.3864885,2.1603455,Barcelona,L'Antiga Esquerra de l'Eixample,False,,28,sale,,,,1325000.0,8953.0,87594023,flat,Barcelona,2,False,148.0,,"L'Antiga Esquerra de l'Eixample, Barcelona",Piso en Calle de la Diputació,https://img3.idealista.com/blur/WEB_LISTING/0/id.pro.es.image.master/83/95/72/725669912.jpg,https://www.idealista.com/inmueble/87594023/
8,"Gran Via de les Corts Catalanes, 1182",1,es,,flat,Sant Martí,True,GRDV11-82,1,False,False,True,False,False,41.4204156,2.2106598,Barcelona,El Besòs,False,,15,sale,,,,199000.0,2398.0,87593610,flat,Barcelona,3,True,83.0,good,"El Besòs, Barcelona","Piso en Gran Via de les Corts Catalanes, 1182",https://img3.idealista.com/blur/WEB_LISTING/0/id.pro.es.image.master/28/77/df/725662115.jpg,https://www.idealista.com/inmueble/87593610/
9,Paseo de la Zona Franca,2,es,,flat,Sants-Montjuïc,True,Zon,1,False,False,True,False,False,41.3573502,2.1417235,Barcelona,La Marina del Port,False,,14,sale,,,,239000.0,2390.0,87593309,flat,Barcelona,4,False,100.0,good,"La Marina del Port, Barcelona",Piso en Paseo de la Zona Franca,https://img3.idealista.com/blur/WEB_LISTING/0/id.pro.es.image.master/d1/4a/37/725647356.jpg,https://www.idealista.com/inmueble/87593309/
10,Gran Via de les Corts Catalanes,4,es,,flat,Eixample,True,AND85,4,False,False,True,True,False,41.3920304,2.176416,Barcelona,La Dreta de l'Eixample,False,,18,sale,,,,1490000.0,5228.0,87592624,flat,Barcelona,4,False,285.0,,"La Dreta de l'Eixample, Barcelona",Piso en Gran Via de les Corts Catalanes,https://img3.idealista.com/blur/WEB_LISTING/0/id.pro.es.image.master/79/6a/85/725630417.jpg,https://www.idealista.com/inmueble/87592624/
11,Rambla de l'Onze de Setembre,2,es,,flat,Sant Andreu,False,1005,7,False,False,True,False,False,41.4314942,2.189898,Barcelona,Sant Andreu,False,,24,sale,True,True,,415000.0,4150.0,87592571,flat,Barcelona,4,False,100.0,good,"Sant Andreu, Barcelona",Piso en Rambla de l'Onze de Setembre,https://img3.idealista.com/blur/WEB_LISTING/0/id.pro.es.image.master/a4/37/8d/754793753.jpg,https://www.idealista.com/inmueble/87592571/
12,Calle de l'Encarnació,2,es,,flat,Horta Guinardó,False,Encarnació,1,False,False,True,True,False,41.4109812,2.1676212,Barcelona,El Baix Guinardó,False,,20,sale,,,,305000.0,3813.0,87592284,flat,Barcelona,3,False,80.0,good,"El Baix Guinardó, Barcelona",Piso en Calle de l'Encarnació,https://img3.idealista.com/blur/WEB_LISTING/0/id.pro.es.image.master/ee/4f/55/760785585.jpg,https://www.idealista.com/inmueble/87592284/
13,"Calle d'Ataülf, 13",2,es,,flat,Ciutat Vella,False,KJ91101,3,False,False,,True,False,41.380948,2.179256,Barcelona,El Gòtic,False,,24,sale,,,,380000.0,4872.0,87592173,flat,Barcelona,2,True,78.0,good,"El Gòtic, Barcelona","Piso en Calle d'Ataülf, 13",https://img3.idealista.com/blur/WEB_LISTING/0/id.pro.es.image.master/dd/22/ba/725615525.jpg,https://www.idealista.com/inmueble/87592173/
14,barrio La Vila Olímpica del Poblenou,2,es,,flat,Sant Martí,False,,3,False,False,True,False,False,41.3929913,2.1912975,Barcelona,La Vila Olímpica del Poblenou,False,,2,sale,,,,345898.0,3233.0,87590478,flat,Barcelona,4,False,107.0,renew,"La Vila Olímpica del Poblenou, Barcelona",Piso,https://img3.idealista.com/blur/WEB_LISTING/0/id.pro.es.image.master/1d/5f/5a/742687380.jpg,https://www.idealista.com/inmueble/87590478/
15,SAS,1,es,,flat,Sant Andreu,False,NC522,1,False,False,True,False,False,41.4379318,2.2033629,Barcelona,El Bon Pastor,False,,5,sale,,,,167900.0,2332.0,87591421,flat,Barcelona,3,False,72.0,good,"El Bon Pastor, Barcelona",Piso en SAS,https://img3.idealista.com/blur/WEB_LISTING/0/id.pro.es.image.master/16/45/b2/725598621.jpg,https://www.idealista.com/inmueble/87591421/
16,AV. MARE DE DEU DE MONTSERRAT,1,es,,flat,Horta Guinardó,True,,2,False,False,True,False,True,41.4136953,2.1659692,Barcelona,El Baix Guinardó,False,,31,sale,,,,282500.0,3717.0,87547110,flat,Barcelona,4,False,76.0,good,"El Baix Guinardó, Barcelona",Piso en AV. MARE DE DEU DE MONTSERRAT,https://img3.idealista.com/blur/WEB_LISTING/0/id.pro.es.image.master/37/0b/bd/724420286.jpg,https://www.idealista.com/inmueble/87547110/
17,Calle de Padilla,3,es,,flat,Eixample,True,V0121P,1,False,False,True,False,False,41.4042179,2.180252,Barcelona,La Sagrada Família,False,,34,sale,,,,480000.0,4528.0,87477011,flat,Barcelona,3,False,106.0,good,"La Sagrada Família, Barcelona",Piso en Calle de Padilla,https://img3.idealista.com/blur/WEB_LISTING/0/id.pro.es.image.master/e8/8a/cc/722535368.jpg,https://www.idealista.com/inmueble/87477011/
18,Gran via corts Catalanes,2,es,,flat,Eixample,True,EBF-GRANVIA-G,5,False,False,True,False,False,41.3839039,2.1587212,Barcelona,La Nova Esquerra de l'Eixample,False,,20,sale,,,,728000.0,4667.0,87590700,flat,Barcelona,5,False,156.0,good,"La Nova Esquerra de l'Eixample, Barcelona",Piso en Gran via corts Catalanes,https://img3.idealista.com/blur/WEB_LISTING/0/id.pro.es.image.master/40/ea/cb/725579624.jpg,https://www.idealista.com/inmueble/87590700/
19,"Calle del Portal Nou, 26",1,es,duplex,flat,Ciutat Vella,True,mpb0105,3,False,False,False,False,False,41.3888168,2.1808267,Barcelona,Sant Pere - Santa Caterina i la Ribera,False,,38,sale,,,,490000.0,4083.0,87590000,duplex,Barcelona,2,True,120.0,good,"Sant Pere - Santa Caterina i la Ribera, Barcelona","Dúplex en Calle del Portal Nou, 26",https://img3.idealista.com/blur/WEB_LISTING/0/id.pro.es.image.master/e6/85/4e/725563882.jpg,https://www.idealista.com/inmueble/87590000/
20,picalquers,1,es,,flat,Ciutat Vella,True,,5,False,False,False,False,False,41.3801569,2.1688137,Barcelona,El Raval,False,,17,sale,,,,136000.0,3022.0,87590426,flat,Barcelona,2,False,45.0,good,"El Raval, Barcelona",Piso en picalquers,https://img3.idealista.com/blur/WEB_LISTING/0/id.pro.es.image.master/a6/16/0b/725573800.jpg,https://www.idealista.com/inmueble/87590426/
21,"eduard maristany, 7",2,es,,flat,Sant Martí,True,,4,False,False,True,True,True,41.4126172,2.2201318,Barcelona,El Besòs,False,,27,sale,True,True,,590000.0,6629.0,87589974,flat,Barcelona,2,True,89.0,good,"El Besòs, Barcelona","Piso en eduard maristany, 7",https://img3.idealista.com/blur/WEB_LISTING/0/id.pro.es.image.master/75/3e/6c/725563162.jpg,https://www.idealista.com/inmueble/87589974/
22,Calle del Maresme,1,es,,flat,Sant Martí,False,J266,2,False,False,True,False,False,41.4218432,2.2017851,Barcelona,La Verneda i la Pau,False,,9,sale,,,,205000.0,2563.0,87589805,flat,Barcelona,3,False,80.0,,"La Verneda i la Pau, Barcelona",Piso en Calle del Maresme,https://img3.idealista.com/blur/WEB_LISTING/0/id.pro.es.image.master/3a/9a/92/725559504.jpg,https://www.idealista.com/inmueble/87589805/
23,"Ronda de Guinardo, 2-4",1,es,,flat,Gràcia,True,1248,3,False,False,True,False,False,41.4142318,2.1612248,Barcelona,La Salut,False,,11,sale,,,,295000.0,3782.0,87588775,flat,Barcelona,3,False,78.0,renew,"La Salut, Barcelona","Piso en Ronda de Guinardo, 2-4",https://img3.idealista.com/blur/WEB_LISTING/0/id.pro.es.image.master/e0/a5/7a/725533978.jpg,https://www.idealista.com/inmueble/87588775/
24,"Calle de Pau Claris, 155",3,es,,flat,Eixample,True,,2,False,False,True,True,False,41.3945477,2.1643459,Barcelona,La Dreta de l'Eixample,False,,21,sale,,,,1975000.0,8778.0,87567568,flat,Barcelona,3,True,225.0,good,"La Dreta de l'Eixample, Barcelona","Piso en Calle de Pau Claris, 155",https://img3.idealista.com/blur/WEB_LISTING/0/id.pro.es.image.master/ed/f6/45/725494608.jpg,https://www.idealista.com/inmueble/87567568/
25,barrio El Baix Guinardó,2,es,,flat,Horta Guinardó,True,2069,3,False,False,True,False,False,41.4122743,2.1674156,Barcelona,El Baix Guinardó,False,,27,sale,,,,380000.0,3918.0,87554678,flat,Barcelona,3,False,97.0,good,"El Baix Guinardó, Barcelona",Piso,https://img3.idealista.com/blur/WEB_LISTING/0/id.pro.es.image.master/9f/77/21/756575618.jpg,https://www.idealista.com/inmueble/87554678/
26,barrio El Poble Sec - Parc de Montjuïc,2,es,,flat,Sants-Montjuïc,False,W-02FX3F,,True,False,False,True,False,41.3722244,2.1636339,Barcelona,El Poble Sec - Parc de Montjuïc,False,,32,sale,,,,595000.0,4343.0,87581126,flat,Barcelona,2,False,137.0,good,"El Poble Sec - Parc de Montjuïc, Barcelona",Piso,https://img3.idealista.com/blur/WEB_LISTING/0/id.pro.es.image.master/83/46/f3/756013020.jpg,https://www.idealista.com/inmueble/87581126/
27,barrio El Carmel,1,es,,flat,Horta Guinardó,False,2518,bj,False,False,False,False,False,41.4273844,2.1553006,Barcelona,El Carmel,False,,9,sale,,,,129000.0,2224.0,39123203,flat,Barcelona,3,False,58.0,good,"El Carmel, Barcelona",Piso,https://img3.idealista.com/blur/WEB_LISTING/0/id.pro.es.image.master/56/7c/5f/725407998.jpg,https://www.idealista.com/inmueble/39123203/
28,barrio El Raval,3,es,,flat,Ciutat Vella,False,BCNP2699,,False,False,True,True,False,41.3836212,2.164782,Barcelona,El Raval,False,,21,sale,,,,675000.0,3792.0,87580960,flat,Barcelona,4,False,178.0,good,"El Raval, Barcelona",Piso,https://img3.idealista.com/blur/WEB_LISTING/0/id.pro.es.image.master/9c/f1/33/725406332.jpg,https://www.idealista.com/inmueble/87580960/
29,Ronda del Guinardó,2,es,,flat,Horta Guinardó,False,AP080240128,3,False,False,True,False,False,41.41082,2.16492,Barcelona,El Baix Guinardó,False,,15,sale,,,,330000.0,3793.0,87580833,flat,Barcelona,4,False,87.0,,"El Baix Guinardó, Barcelona",Piso en Ronda del Guinardó,https://img3.idealista.com/blur/WEB_LISTING/0/id.pro.es.image.master/62/e6/0a/725402383.jpg,https://www.idealista.com/inmueble/87580833/
30,Calle de Còrsega,2,es,,flat,Sant Martí,False,AP080250021,,False,False,True,False,False,41.4085759,2.1770148,Barcelona,El Camp de l'Arpa del Clot,False,,20,sale,,,,480000.0,3664.0,87580827,flat,Barcelona,4,False,131.0,,"El Camp de l'Arpa del Clot, Barcelona",Piso en Calle de Còrsega,https://img3.idealista.com/blur/WEB_LISTING/0/id.pro.es.image.master/78/9e/23/725402137.jpg,https://www.idealista.com/inmueble/87580827/
31,Calle del Degà Bahí,2,es,,flat,Sant Martí,False,AP080260020,,False,False,True,False,False,41.4112466,2.1835208,Barcelona,El Camp de l'Arpa del Clot,False,,17,sale,True,True,,379000.0,3989.0,87580825,flat,Barcelona,2,False,95.0,,"El Camp de l'Arpa del Clot, Barcelona",Piso en Calle del Degà Bahí,https://img3.idealista.com/blur/WEB_LISTING/0/id.pro.es.image.master/2e/49/17/725402093.jpg,https://www.idealista.com/inmueble/87580825/
32,Calle de la Marina,2,es,,flat,Eixample,False,AP080130116,2,False,False,True,False,False,41.4018979,2.1787341,Barcelona,El Fort Pienc,False,,20,sale,,,,560000.0,5437.0,87580803,flat,Barcelona,3,False,103.0,,"El Fort Pienc, Barcelona",Piso en Calle de la Marina,https://img3.idealista.com/blur/WEB_LISTING/0/id.pro.es.image.master/52/7e/24/725401988.jpg,https://www.idealista.com/inmueble/87580803/
33,Calle de l'Encarnació,1,es,,flat,Gràcia,False,AP080240110,2,False,False,False,False,False,41.4062462,2.1594706,Barcelona,Vila de Gràcia,False,,12,sale,,,,395000.0,4647.0,87580813,flat,Barcelona,3,False,85.0,,"Vila de Gràcia, Barcelona",Piso en Calle de l'Encarnació,https://img3.idealista.com/blur/WEB_LISTING/0/id.pro.es.image.master/2b/0b/2e/725401834.jpg,https://www.idealista.com/inmueble/87580813/
34,Calle de Vinyals,1,es,,flat,Horta Guinardó,False,AP080410106,,False,False,True,False,False,41.4218275,2.174551,Barcelona,El Guinardó,False,,20,sale,,,,299000.0,4271.0,87580811,flat,Barcelona,3,False,70.0,,"El Guinardó, Barcelona",Piso en Calle de Vinyals,https://img3.idealista.com/blur/WEB_LISTING/0/id.pro.es.image.master/26/a9/4e/725401768.jpg,https://www.idealista.com/inmueble/87580811/
35,Calle de Sardenya,1,es,,flat,Gràcia,False,AP080250091,,False,False,False,False,False,41.4091808,2.1645155,Barcelona,El Camp d'En Grassot i Gràcia Nova,False,,20,sale,,,,249000.0,4150.0,87580757,flat,Barcelona,3,False,60.0,,"El Camp d'En Grassot i Gràcia Nova, Barcelona",Piso en Calle de Sardenya,https://img3.idealista.com/blur/WEB_LISTING/0/id.pro.es.image.master/23/76/a8/725401662.jpg,https://www.idealista.com/inmueble/87580757/
36,Calle de Goya,1,es,,flat,Gràcia,False,AP080120087,bj,False,False,False,False,False,41.3980382,2.1558334,Barcelona,Vila de Gràcia,False,,11,sale,,,,295000.0,3041.0,87580795,flat,Barcelona,1,False,97.0,,"Vila de Gràcia, Barcelona",Piso en Calle de Goya,https://img3.idealista.com/blur/WEB_LISTING/0/id.pro.es.image.master/c2/f7/8b/725401579.jpg,https://www.idealista.com/inmueble/87580795/
37,Calle de València,1,es,,flat,Eixample,False,AP080150086,3,False,False,True,False,False,41.3817649,2.1464059,Barcelona,La Nova Esquerra de l'Eixample,False,,20,sale,,,,480000.0,3934.0,87580774,flat,Barcelona,4,False,122.0,,"La Nova Esquerra de l'Eixample, Barcelona",Piso en Calle de València,https://img3.idealista.com/blur/WEB_LISTING/0/id.pro.es.image.master/d8/e5/d5/725401557.jpg,https://www.idealista.com/inmueble/87580774/
38,Calle Nou de Sant Francesc,1,es,,flat,Ciutat Vella,False,AP080020079,4,False,False,False,False,False,41.3772922,2.1769622,Barcelona,El Gòtic,False,,20,sale,,,,215000.0,3028.0,87580788,flat,Barcelona,1,False,71.0,,"El Gòtic, Barcelona",Piso en Calle Nou de Sant Francesc,https://img3.idealista.com/blur/WEB_LISTING/0/id.pro.es.image.master/c5/11/64/725401444.jpg,https://www.idealista.com/inmueble/87580788/
39,Calle de Sant Pau,2,es,,flat,Ciutat Vella,False,AP080150076,,False,False,False,False,False,41.3814837,2.1721365,Barcelona,El Raval,False,,6,sale,,,,450000.0,4128.0,87580786,flat,Barcelona,4,False,109.0,,"El Raval, Barcelona",Piso en Calle de Sant Pau,https://img3.idealista.com/blur/WEB_LISTING/0/id.pro.es.image.master/e3/65/6d/725401441.jpg,https://www.idealista.com/inmueble/87580786/
40,Calle de Piquer,1,es,,flat,Sants-Montjuïc,False,AP080040069,,False,False,False,False,False,41.3709977,2.1722374,Barcelona,El Poble Sec - Parc de Montjuïc,False,,20,sale,,,,285000.0,3563.0,87580784,flat,Barcelona,3,False,80.0,,"El Poble Sec - Parc de Montjuïc, Barcelona",Piso en Calle de Piquer,https://img3.idealista.com/blur/WEB_LISTING/0/id.pro.es.image.master/95/0c/b1/725401381.jpg,https://www.idealista.com/inmueble/87580784/
41,Calle de Lepant,2,es,,flat,Eixample,False,AP080250039,1,False,False,True,False,False,41.408662,2.1739309,Barcelona,La Sagrada Família,False,,11,sale,,,,350000.0,7000.0,87580778,flat,Barcelona,2,False,50.0,,"La Sagrada Família, Barcelona",Piso en Calle de Lepant,https://img3.idealista.com/blur/WEB_LISTING/0/id.pro.es.image.master/ee/de/15/725401260.jpg,https://www.idealista.com/inmueble/87580778/
42,Calle de Larrard,1,es,,flat,Gràcia,False,AP080240026,,False,False,True,False,False,41.4114766,2.1556144,Barcelona,La Salut,False,,20,sale,,,,260000.0,4333.0,87580776,flat,Barcelona,3,False,60.0,,"La Salut, Barcelona",Piso en Calle de Larrard,https://img3.idealista.com/blur/WEB_LISTING/0/id.pro.es.image.master/f8/6d/11/725401221.jpg,https://www.idealista.com/inmueble/87580776/
43,barrio El Raval,1,es,,flat,Ciutat Vella,True,232345,4,False,False,False,True,False,41.3802322,2.1723842,Barcelona,El Raval,False,,19,sale,,,,305000.0,2905.0,87580684,flat,Barcelona,3,False,105.0,good,"El Raval, Barcelona",Piso,https://img3.idealista.com/blur/WEB_LISTING/0/id.pro.es.image.master/58/01/e9/725400007.jpg,https://www.idealista.com/inmueble/87580684/
44,Calle de Provença,1,es,,flat,Eixample,True,,4,False,False,True,False,False,41.4099434,2.1798303,Barcelona,La Sagrada Família,False,,15,sale,,,,194995.0,4643.0,87580580,flat,Barcelona,1,False,42.0,good,"La Sagrada Família, Barcelona",Piso en Calle de Provença,https://img3.idealista.com/blur/WEB_LISTING/0/id.pro.es.image.master/24/01/b7/729590318.jpg,https://www.idealista.com/inmueble/87580580/
45,barrio El Poblenou,1,es,,flat,Sant Martí,True,564,4,False,False,True,True,False,41.4014603,2.2014746,Barcelona,El Poblenou,False,,17,sale,,,,350000.0,3804.0,87578554,flat,Barcelona,3,False,92.0,good,"El Poblenou, Barcelona",Piso,https://img3.idealista.com/blur/WEB_LISTING/0/id.pro.es.image.master/6b/d5/36/735991334.jpg,https://www.idealista.com/inmueble/87578554/
46,Calle de Sant Pere d'Abanto,1,es,,flat,Sants-Montjuïc,True,AND80,2,False,False,True,False,False,41.3722924,2.1423898,Barcelona,Hostafrancs,False,,6,sale,,,,355000.0,4438.0,87578288,flat,Barcelona,2,False,80.0,good,"Hostafrancs, Barcelona",Piso en Calle de Sant Pere d'Abanto,https://img3.idealista.com/blur/WEB_LISTING/0/id.pro.es.image.master/4d/1b/be/725315543.jpg,https://www.idealista.com/inmueble/87578288/
47,Calle de la Muga,1,es,,flat,Sants-Montjuïc,True,V299,1,False,False,False,False,True,41.3633112,2.1429893,Barcelona,La Marina del Port,False,,12,sale,,,,125000.0,2273.0,88987042,flat,Barcelona,2,False,55.0,good,"La Marina del Port, Barcelona",Piso en Calle de la Muga,https://img3.idealista.com/blur/WEB_LISTING/0/id.pro.es.image.master/d5/89/89/725276437.jpg,https://www.idealista.com/inmueble/88987042/
48,"CAN OLIVA, 3",1,es,,flat,Sant Martí,True,canoliva2019,8,False,False,True,False,False,41.4211019,2.2086499,Barcelona,La Verneda i la Pau,False,,16,sale,,,,130000.0,2364.0,87576555,flat,Barcelona,2,True,55.0,good,"La Verneda i la Pau, Barcelona","Piso en CAN OLIVA, 3",https://img3.idealista.com/blur/WEB_LISTING/0/id.pro.es.image.master/ca/25/4e/725273398.jpg,https://www.idealista.com/inmueble/87576555/
49,barrio La Dreta de l'Eixample,2,es,,flat,Eixample,False,W-02G3K6,bj,False,False,False,False,False,41.3992407,2.1703619,Barcelona,La Dreta de l'Eixample,False,,28,sale,,,,370000.0,3776.0,87576429,flat,Barcelona,1,False,98.0,good,"La Dreta de l'Eixample, Barcelona",Piso,https://img3.idealista.com/blur/WEB_LISTING/0/id.pro.es.image.master/29/d3/96/755922899.jpg,https://www.idealista.com/inmueble/87576429/
0,barrio El Bon Pastor,3,es,penthouse,flat,Sant Andreu,False,W-024G2L,6,False,False,True,False,False,41.43898,2.1987599,Barcelona,El Bon Pastor,False,,30,sale,True,True,,495000.0,3694.0,87576426,penthouse,Barcelona,3,False,134.0,good,"El Bon Pastor, Barcelona",Ático,https://img3.idealista.com/blur/WEB_LISTING/0/id.pro.es.image.master/96/1b/9e/756030420.jpg,https://www.idealista.com/inmueble/87576426/
1,ALCANAR,1,es,penthouse,flat,Ciutat Vella,True,A2946,4,False,False,False,False,False,41.3813187,2.1893325,Barcelona,La Barceloneta,False,,8,sale,,,,150000.0,3947.0,87575833,penthouse,Barcelona,2,False,38.0,good,"La Barceloneta, Barcelona",Ático en ALCANAR,https://img3.idealista.com/blur/WEB_LISTING/0/id.pro.es.image.master/63/3a/dd/725257344.jpg,https://www.idealista.com/inmueble/87575833/
2,Ronda del Guinardó,1,es,,flat,Gràcia,True,WEL-826,3,False,False,True,False,False,41.4112318,2.1590248,Barcelona,La Salut,False,,11,sale,,,,285000.0,3654.0,87574868,flat,Barcelona,3,False,78.0,renew,"La Salut, Barcelona",Piso en Ronda del Guinardó,https://img3.idealista.com/blur/WEB_LISTING/0/id.pro.es.image.master/f2/ea/85/725239088.jpg,https://www.idealista.com/inmueble/87574868/
3,"Calle Rocafort, 140",2,es,,flat,Eixample,True,3º3ª,3,False,False,True,True,False,41.3817979,2.1501685,Barcelona,La Nova Esquerra de l'Eixample,True,False,15,sale,,,,565000.0,5947.0,89012762,flat,Barcelona,3,True,95.0,newdevelopment,"La Nova Esquerra de l'Eixample, Barcelona","Piso en Calle Rocafort, 140",https://img3.idealista.com/blur/WEB_LISTING/0/id.pro.es.image.master/29/67/b3/725229748.jpg,https://www.idealista.com/obra-nueva/89012762/
4,"Calle Rocafort, 140",2,es,,flat,Eixample,True,p4 4º4ª,4,False,False,True,True,False,41.3817979,2.1501685,Barcelona,La Nova Esquerra de l'Eixample,True,False,17,sale,,,,510000.0,5795.0,88279358,flat,Barcelona,3,True,88.0,newdevelopment,"La Nova Esquerra de l'Eixample, Barcelona","Piso en Calle Rocafort, 140",https://img3.idealista.com/blur/WEB_LISTING/0/id.pro.es.image.master/e4/71/1e/725229741.jpg,https://www.idealista.com/obra-nueva/88279358/
5,"Calle Rocafort, 140",2,es,,flat,Eixample,True,p5 5º4ª,5,False,False,True,True,False,41.3817979,2.1501685,Barcelona,La Nova Esquerra de l'Eixample,True,False,19,sale,,,,685000.0,7784.0,88279360,flat,Barcelona,3,True,88.0,newdevelopment,"La Nova Esquerra de l'Eixample, Barcelona","Piso en Calle Rocafort, 140",https://img3.idealista.com/blur/WEB_LISTING/0/id.pro.es.image.master/f3/f1/3f/725229742.jpg,https://www.idealista.com/obra-nueva/88279360/
6,"Calle Rocafort, 140",2,es,,flat,Eixample,True,p2 2º3ª,2,False,False,True,True,False,41.3817979,2.1501685,Barcelona,La Nova Esquerra de l'Eixample,True,False,17,sale,,,,550000.0,5789.0,88279356,flat,Barcelona,3,True,95.0,newdevelopment,"La Nova Esquerra de l'Eixample, Barcelona","Piso en Calle Rocafort, 140",https://img3.idealista.com/blur/WEB_LISTING/0/id.pro.es.image.master/29/67/b3/725229748.jpg,https://www.idealista.com/obra-nueva/88279356/
7,Calle del Repartidor,2,es,duplex,flat,Gràcia,True,3Hv1119-753-IAP,bj,False,False,True,False,False,41.409922,2.1493246,Barcelona,La Salut,False,,13,sale,True,False,24000.0,295000.0,3554.0,87574239,duplex,Barcelona,2,False,83.0,good,"La Salut, Barcelona",Dúplex en Calle del Repartidor,https://img3.idealista.com/blur/WEB_LISTING/0/id.pro.es.image.master/99/d8/b5/725223577.jpg,https://www.idealista.com/inmueble/87574239/
8,Calle de Padilla,1,es,,flat,Horta Guinardó,True,4144,,False,False,True,True,False,41.4135772,2.167707,Barcelona,El Baix Guinardó,False,,13,sale,,,,250000.0,4032.0,87573969,flat,Barcelona,3,False,62.0,,"El Baix Guinardó, Barcelona",Piso en Calle de Padilla,https://img3.idealista.com/blur/WEB_LISTING/0/id.pro.es.image.master/0a/bb/a9/725215587.jpg,https://www.idealista.com/inmueble/87573969/
9,Calle de Padilla,1,es,,flat,Horta Guinardó,True,4143,,False,False,True,True,False,41.4125772,2.170107,Barcelona,El Baix Guinardó,False,,14,sale,,,,265000.0,3533.0,87573968,flat,Barcelona,3,False,75.0,,"El Baix Guinardó, Barcelona",Piso en Calle de Padilla,https://img3.idealista.com/blur/WEB_LISTING/0/id.pro.es.image.master/fc/c4/21/725215516.jpg,https://www.idealista.com/inmueble/87573968/
10,Calle d'Aragó,1,es,penthouse,flat,Eixample,False,FC003,6,False,False,True,False,False,41.4038593,2.1819407,Barcelona,La Sagrada Família,False,,12,sale,,,,395000.0,7596.0,87573088,penthouse,Barcelona,1,False,52.0,good,"La Sagrada Família, Barcelona",Ático en Calle d'Aragó,https://img3.idealista.com/blur/WEB_LISTING/0/id.pro.es.image.master/0c/23/72/725192681.jpg,https://www.idealista.com/inmueble/87573088/
11,Calle de Muntaner,1,es,,flat,Eixample,True,MUNTANER,2,False,False,True,False,False,41.3884133,2.1581417,Barcelona,L'Antiga Esquerra de l'Eixample,False,,19,sale,,,,435000.0,5438.0,87571928,flat,Barcelona,3,False,80.0,good,"L'Antiga Esquerra de l'Eixample, Barcelona",Piso en Calle de Muntaner,https://img3.idealista.com/blur/WEB_LISTING/270/id.pro.es.image.master/1d/14/94/757077644.jpg,https://www.idealista.com/inmueble/87571928/
12,Calle dels Cavallers,7,es,,chalet,Les Corts,False,4139,,False,False,,False,False,41.3903437,2.1087066,Barcelona,Pedralbes,False,,35,sale,True,True,,5500000.0,7925.0,87571834,chalet,Barcelona,6,False,694.0,,"Pedralbes, Barcelona",Chalet en Calle dels Cavallers,https://img3.idealista.com/blur/WEB_LISTING/0/id.pro.es.image.master/9d/d5/bb/725160283.jpg,https://www.idealista.com/inmueble/87571834/
13,"Calle de Sant Pere Mitjà, 26",1,es,,flat,Ciutat Vella,True,BVGH0236,5,False,False,False,False,True,41.3880278,2.1776273,Barcelona,Sant Pere - Santa Caterina i la Ribera,False,,19,sale,,,,262000.0,4679.0,87571634,flat,Barcelona,3,True,56.0,good,"Sant Pere - Santa Caterina i la Ribera, Barcelona","Piso en Calle de Sant Pere Mitjà, 26",https://img3.idealista.com/blur/WEB_LISTING/0/id.pro.es.image.master/eb/49/ae/725148541.jpg,https://www.idealista.com/inmueble/87571634/
14,Calle de Calàbria,1,es,,flat,Eixample,True,,1,False,False,True,False,False,41.3858119,2.1457095,Barcelona,La Nova Esquerra de l'Eixample,False,,29,sale,,,,236000.0,3371.0,87571253,flat,Barcelona,1,False,70.0,good,"La Nova Esquerra de l'Eixample, Barcelona",Piso en Calle de Calàbria,https://img3.idealista.com/blur/WEB_LISTING/0/id.pro.es.image.master/b5/04/7f/725142370.jpg,https://www.idealista.com/inmueble/87571253/
15,"REPARTIDOR, 8",2,es,duplex,flat,Gràcia,False,BVGH0234,bj,False,False,False,False,True,41.410622,2.1497246,Barcelona,La Salut,False,,16,sale,,,,345000.0,3670.0,87570549,duplex,Barcelona,2,True,94.0,good,"La Salut, Barcelona","Dúplex en REPARTIDOR, 8",https://img3.idealista.com/blur/WEB_LISTING/0/id.pro.es.image.master/1e/7f/8e/725122267.jpg,https://www.idealista.com/inmueble/87570549/
16,"RDA DEL GUINARDO, 27",2,es,,flat,Horta Guinardó,True,BVGH0232,3,False,False,True,False,True,41.41232,2.16372,Barcelona,El Baix Guinardó,False,,17,sale,,,,320000.0,3678.0,87568933,flat,Barcelona,4,True,87.0,renew,"El Baix Guinardó, Barcelona","Piso en RDA DEL GUINARDO, 27",https://img3.idealista.com/blur/WEB_LISTING/0/id.pro.es.image.master/ed/ff/de/725083420.jpg,https://www.idealista.com/inmueble/87568933/
17,barrio La Dreta de l'Eixample,2,es,,flat,Eixample,True,VB1911001,4,False,False,True,True,True,41.3971237,2.1643939,Barcelona,La Dreta de l'Eixample,False,,47,sale,,,,1600000.0,9249.0,87568492,flat,Barcelona,3,False,173.0,good,"La Dreta de l'Eixample, Barcelona",Piso,https://img3.idealista.com/blur/WEB_LISTING/0/id.pro.es.image.master/5f/8b/ab/761767272.jpg,https://www.idealista.com/inmueble/87568492/
18,"marina, 137",1,es,,flat,Eixample,True,AP1918,3,False,False,False,True,True,41.3969706,2.1836174,Barcelona,El Fort Pienc,False,,12,sale,,,,230000.0,5111.0,87566641,flat,Barcelona,1,True,45.0,good,"El Fort Pienc, Barcelona","Piso en marina, 137",https://img3.idealista.com/blur/WEB_LISTING/0/id.pro.es.image.master/11/82/55/725018993.jpg,https://www.idealista.com/inmueble/87566641/
19,barrio Sant Gervasi - Galvany,3,es,,flat,Sarrià-Sant Gervasi,True,2019_73,3,False,False,True,True,False,41.3941585,2.1419785,Barcelona,Sant Gervasi - Galvany,False,,78,sale,,,,1290000.0,5099.0,87566318,flat,Barcelona,5,False,253.0,good,"Sant Gervasi - Galvany, Barcelona",Piso,https://img3.idealista.com/blur/WEB_LISTING/0/id.pro.es.image.master/de/6a/57/747920673.jpg,https://www.idealista.com/inmueble/87566318/
20,barrio Sant Gervasi - Galvany,3,es,,flat,Sarrià-Sant Gervasi,True,2019_67,6,False,False,True,True,False,41.3955592,2.1426241,Barcelona,Sant Gervasi - Galvany,False,,5,sale,,,,998000.0,5253.0,87566317,flat,Barcelona,5,False,190.0,renew,"Sant Gervasi - Galvany, Barcelona",Piso,https://img3.idealista.com/blur/WEB_LISTING/0/id.pro.es.image.master/1e/15/28/757393648.jpg,https://www.idealista.com/inmueble/87566317/
21,barrio El Raval,2,es,duplex,flat,Ciutat Vella,False,ROH00326,bj,False,False,False,True,False,41.3805307,2.1666722,Barcelona,El Raval,False,,25,sale,,,,520000.0,3059.0,87565876,duplex,Barcelona,2,False,170.0,good,"El Raval, Barcelona",Dúplex,https://img3.idealista.com/blur/WEB_LISTING/0/id.pro.es.image.master/94/8f/6a/728393012.jpg,https://www.idealista.com/inmueble/87565876/
22,Escorial,2,es,,flat,Gràcia,True,3636,1,False,False,True,False,True,41.4092016,2.1587664,Barcelona,El Camp d'En Grassot i Gràcia Nova,False,,21,sale,,,,349000.0,3878.0,29369498,flat,Barcelona,4,False,90.0,good,"El Camp d'En Grassot i Gràcia Nova, Barcelona",Piso en Escorial,https://img3.idealista.com/blur/WEB_LISTING/0/id.pro.es.image.master/84/97/1c/84854067.jpg,https://www.idealista.com/inmueble/29369498/
23,"Calle Maresme, 272",1,es,,flat,Sant Martí,True,BZMAR272,8,False,False,True,False,True,41.4223978,2.2024375,Barcelona,La Verneda i la Pau,False,,20,sale,,,,250000.0,2632.0,87561582,flat,Barcelona,3,True,95.0,good,"La Verneda i la Pau, Barcelona","Piso en Calle Maresme, 272",https://img3.idealista.com/blur/WEB_LISTING/0/id.pro.es.image.master/c2/51/a2/724866080.jpg,https://www.idealista.com/inmueble/87561582/
24,"Calle Casanova, 111",2,es,,flat,Eixample,True,CASANOVA - BARCELONA,3,False,False,True,False,False,41.3876199,2.1556484,Barcelona,L'Antiga Esquerra de l'Eixample,False,,21,sale,,,,497000.0,3823.0,87560080,flat,Barcelona,4,True,130.0,good,"L'Antiga Esquerra de l'Eixample, Barcelona","Piso en Calle Casanova, 111",https://img3.idealista.com/blur/WEB_LISTING/0/id.pro.es.image.master/78/a5/bb/724810749.jpg,https://www.idealista.com/inmueble/87560080/
25,Avenida de Josep Tarradellas,1,es,,flat,Eixample,True,471,4,False,False,True,True,True,41.3906477,2.1434176,Barcelona,L'Antiga Esquerra de l'Eixample,False,,18,sale,,,,590000.0,8082.0,87558477,flat,Barcelona,2,False,73.0,good,"L'Antiga Esquerra de l'Eixample, Barcelona",Piso en Avenida de Josep Tarradellas,https://img3.idealista.com/blur/WEB_LISTING/0/id.pro.es.image.master/f0/61/c9/724772879.jpg,https://www.idealista.com/inmueble/87558477/
26,Avenida de la República Argentina,1,es,,flat,Sarrià-Sant Gervasi,True,455,3,False,False,True,True,True,41.4126749,2.1361493,Barcelona,El Putxet i el Farró,False,,37,sale,,,,390000.0,3900.0,87558073,flat,Barcelona,3,False,100.0,good,"El Putxet i el Farró, Barcelona",Piso en Avenida de la República Argentina,https://img3.idealista.com/blur/WEB_LISTING/0/id.pro.es.image.master/a5/ea/b4/724761323.jpg,https://www.idealista.com/inmueble/87558073/
27,"Plaza de la Universidad, 11",2,es,penthouse,flat,Eixample,True,R-593,5,False,False,True,True,False,41.3861838,2.1647175,Barcelona,La Dreta de l'Eixample,False,,29,sale,,,,450000.0,6429.0,87557741,penthouse,Barcelona,2,True,70.0,good,"La Dreta de l'Eixample, Barcelona","Ático en Plaza de la Universidad, 11",https://img3.idealista.com/blur/WEB_LISTING/0/id.pro.es.image.master/89/af/76/724751799.jpg,https://www.idealista.com/inmueble/87557741/
28,"Calle de Roger, 15",1,es,duplex,flat,Sants-Montjuïc,True,GDH-009,bj,False,False,True,False,False,41.3767575,2.1264988,Barcelona,Sants - Badal,False,,17,sale,,,,250000.0,4032.0,84045352,duplex,Barcelona,1,True,62.0,good,"Sants - Badal, Barcelona","Dúplex en Calle de Roger, 15",https://img3.idealista.com/blur/WEB_LISTING/0/id.pro.es.image.master/a7/94/7a/630660537.jpg,https://www.idealista.com/inmueble/84045352/
29,Calle del Repartidor,2,es,duplex,flat,Gràcia,True,GDH-1005,bj,False,False,True,True,False,41.4094813,2.1480509,Barcelona,La Salut,False,,14,sale,True,False,15000.0,380000.0,4130.0,84581192,duplex,Barcelona,0,False,92.0,good,"La Salut, Barcelona",Dúplex en Calle del Repartidor,https://img3.idealista.com/blur/WEB_LISTING/0/id.pro.es.image.master/82/55/3a/642274947.jpg,https://www.idealista.com/inmueble/84581192/
30,"Calle del Taulat, 46",2,es,,flat,Sant Martí,True,GDH-029,1,False,False,True,True,False,41.3990349,2.2052712,Barcelona,El Poblenou,False,,7,sale,,,,690000.0,6900.0,84914067,flat,Barcelona,3,True,100.0,good,"El Poblenou, Barcelona","Piso en Calle del Taulat, 46",https://img3.idealista.com/blur/WEB_LISTING/0/id.pro.es.image.master/a1/ee/1d/649967370.jpg,https://www.idealista.com/inmueble/84914067/
31,"Calle del Taulat, 46",3,es,semidetachedHouse,chalet,Sant Martí,False,GDH-033,,False,False,,False,False,41.3990349,2.2052712,Barcelona,El Poblenou,False,,8,sale,,,,1100000.0,5288.0,85024594,chalet,Barcelona,4,True,208.0,good,"El Poblenou, Barcelona","Chalet pareado en Calle del Taulat, 46",https://img3.idealista.com/blur/WEB_LISTING/0/id.pro.es.image.master/3f/41/10/754474720.jpg,https://www.idealista.com/inmueble/85024594/
32,Calle del Taulat,2,es,,flat,Sant Martí,True,GDH-034,3,False,False,True,True,False,41.3995349,2.2040712,Barcelona,El Poblenou,False,,8,sale,,,,750000.0,7009.0,85640314,flat,Barcelona,3,False,107.0,good,"El Poblenou, Barcelona",Piso en Calle del Taulat,https://img3.idealista.com/blur/WEB_LISTING/0/id.pro.es.image.master/84/8a/91/754474685.jpg,https://www.idealista.com/inmueble/85640314/
33,Calle del Repartidor,1,es,duplex,flat,Gràcia,True,GDH-040,bj,False,False,True,True,False,41.4084813,2.1477509,Barcelona,La Salut,False,,10,sale,True,False,15000.0,350000.0,4268.0,85308359,duplex,Barcelona,0,False,82.0,good,"La Salut, Barcelona",Dúplex en Calle del Repartidor,https://img3.idealista.com/blur/WEB_LISTING/0/id.pro.es.image.master/f0/a3/2b/744579092.jpg,https://www.idealista.com/inmueble/85308359/
34,"Calle del Repartidor, 3",3,es,duplex,flat,Gràcia,True,GDH-038,1,False,False,True,True,False,41.4103813,2.1497509,Barcelona,La Salut,False,,32,sale,True,False,15000.0,760000.0,4691.0,84989539,duplex,Barcelona,4,True,162.0,good,"La Salut, Barcelona","Dúplex en Calle del Repartidor, 3",https://img3.idealista.com/blur/WEB_LISTING/0/id.pro.es.image.master/86/bb/04/725961098.jpg,https://www.idealista.com/inmueble/84989539/
35,barrio El Raval,2,es,,flat,Ciutat Vella,False,HAB_10077-DM,2,False,False,True,False,False,41.382259,2.1726798,Barcelona,El Raval,False,,5,sale,,,,480000.0,4486.0,87554659,flat,Barcelona,4,False,107.0,,"El Raval, Barcelona",Piso,https://img3.idealista.com/blur/WEB_LISTING/0/id.pro.es.image.master/9b/be/2a/763784893.jpg,https://www.idealista.com/inmueble/87554659/
36,barrio La Dreta de l'Eixample,3,es,,flat,Eixample,False,CMP0239,2,False,False,True,False,False,41.3944807,2.1643262,Barcelona,La Dreta de l'Eixample,False,,23,sale,,,,1150000.0,6609.0,87554220,flat,Barcelona,4,False,174.0,good,"La Dreta de l'Eixample, Barcelona",Piso,https://img3.idealista.com/blur/WEB_LISTING/0/id.pro.es.image.master/59/b5/05/735671476.jpg,https://www.idealista.com/inmueble/87554220/
37,barrio La Sagrada Família,1,es,penthouse,flat,Eixample,True,5027,9,False,False,True,False,False,41.407512,2.1733936,Barcelona,La Sagrada Família,False,,15,sale,,,,415000.0,3915.0,87554195,penthouse,Barcelona,3,False,106.0,good,"La Sagrada Família, Barcelona",Ático,https://img3.idealista.com/blur/WEB_LISTING/0/id.pro.es.image.master/52/49/c1/724625430.jpg,https://www.idealista.com/inmueble/87554195/
38,barrio El Camp d'En Grassot i Gràcia Nova,2,es,,flat,Gràcia,False,W-02HBXN,4,False,False,True,False,False,41.407736,2.1673068,Barcelona,El Camp d'En Grassot i Gràcia Nova,False,,13,sale,,,,360000.0,3529.0,87554156,flat,Barcelona,3,False,102.0,good,"El Camp d'En Grassot i Gràcia Nova, Barcelona",Piso,https://img3.idealista.com/blur/WEB_LISTING/0/id.pro.es.image.master/8b/35/3b/756020266.jpg,https://www.idealista.com/inmueble/87554156/
39,barrio Les Corts,1,es,,flat,Les Corts,True,233110,1,False,False,True,True,False,41.3868054,2.1275984,Barcelona,Les Corts,False,,20,sale,,,,267000.0,4944.0,87553912,flat,Barcelona,1,False,54.0,good,"Les Corts, Barcelona",Piso,https://img3.idealista.com/blur/WEB_LISTING/0/id.pro.es.image.master/dc/1c/e0/732350704.jpg,https://www.idealista.com/inmueble/87553912/
40,barrio Sant Gervasi - Galvany,2,es,penthouse,flat,Sarrià-Sant Gervasi,True,218503,6,True,False,True,True,False,41.3972809,2.1515149,Barcelona,Sant Gervasi - Galvany,False,,30,sale,,,,895000.0,4735.0,83667052,penthouse,Barcelona,5,False,189.0,renew,"Sant Gervasi - Galvany, Barcelona",Ático,https://img3.idealista.com/blur/WEB_LISTING/0/id.pro.es.image.master/b1/83/df/763098930.jpg,https://www.idealista.com/inmueble/83667052/
41,Calle de Lope de Vega,2,es,,flat,Sant Martí,True,002509,2,False,False,True,False,False,41.4054684,2.2048052,Barcelona,El Poblenou,False,,21,sale,True,True,,495000.0,4806.0,87553749,flat,Barcelona,3,False,103.0,good,"El Poblenou, Barcelona",Piso en Calle de Lope de Vega,https://img3.idealista.com/blur/WEB_LISTING/0/id.pro.es.image.master/55/ca/5d/724615226.jpg,https://www.idealista.com/inmueble/87553749/
42,Avenida de Josep Tarradellas,2,es,,flat,Eixample,True,VK0564,1,False,False,True,False,False,41.3913477,2.1459176,Barcelona,L'Antiga Esquerra de l'Eixample,False,,30,sale,,,,740000.0,8043.0,87553210,flat,Barcelona,2,False,92.0,good,"L'Antiga Esquerra de l'Eixample, Barcelona",Piso en Avenida de Josep Tarradellas,https://img3.idealista.com/blur/WEB_LISTING/0/id.pro.es.image.master/8a/75/8f/750400003.jpg,https://www.idealista.com/inmueble/87553210/
43,Calle de València,1,es,,flat,Eixample,False,S3174,7,False,False,True,False,True,41.4083052,2.1831744,Barcelona,La Sagrada Família,False,,52,sale,,,,389900.0,4332.0,87552487,flat,Barcelona,3,False,90.0,good,"La Sagrada Família, Barcelona",Piso en Calle de València,https://img3.idealista.com/blur/WEB_LISTING/0/id.pro.es.image.master/84/fb/64/757482790.jpg,https://www.idealista.com/inmueble/87552487/
44,Calle de Sagués,1,es,,flat,Sarrià-Sant Gervasi,False,BCN10963V,1,False,False,True,False,True,41.395033,2.1426292,Barcelona,Sant Gervasi - Galvany,False,,16,sale,,,,549000.0,6459.0,87552447,flat,Barcelona,3,False,85.0,renew,"Sant Gervasi - Galvany, Barcelona",Piso en Calle de Sagués,https://img3.idealista.com/blur/WEB_LISTING/0/id.pro.es.image.master/9c/fe/4c/724554250.jpg,https://www.idealista.com/inmueble/87552447/
45,Calle de l'Equador,2,es,,flat,Les Corts,True,GAJ72,1,False,False,True,False,False,41.3863578,2.1406696,Barcelona,Les Corts,False,,75,sale,True,False,30000.0,535000.0,6294.0,87552027,flat,Barcelona,4,False,85.0,good,"Les Corts, Barcelona",Piso en Calle de l'Equador,https://img3.idealista.com/blur/WEB_LISTING/0/id.pro.es.image.master/25/ae/9a/724543464.jpg,https://www.idealista.com/inmueble/87552027/
46,barrio Vila de Gràcia,1,es,,flat,Gràcia,True,13648,en,False,False,False,True,False,41.4040017,2.1606958,Barcelona,Vila de Gràcia,False,,20,sale,,,,269000.0,4270.0,87551671,flat,Barcelona,2,False,63.0,good,"Vila de Gràcia, Barcelona",Piso,https://img3.idealista.com/blur/WEB_LISTING/0/id.pro.es.image.master/1c/99/07/724537226.jpg,https://www.idealista.com/inmueble/87551671/
47,Calle del Comte Borrell,2,es,,flat,Eixample,True,RP207201963708,3,False,False,True,False,False,41.3748315,2.1629368,Barcelona,Sant Antoni,False,,26,sale,True,True,,400000.0,4211.0,87551606,flat,Barcelona,4,False,95.0,good,"Sant Antoni, Barcelona",Piso en Calle del Comte Borrell,https://img3.idealista.com/blur/WEB_LISTING/0/id.pro.es.image.master/1e/85/84/724535780.jpg,https://www.idealista.com/inmueble/87551606/
48,Calle de Ganduxer,2,es,duplex,flat,Sarrià-Sant Gervasi,True,2851,5,False,False,True,False,False,41.391392,2.137341,Barcelona,Sant Gervasi - Galvany,False,,39,sale,True,True,,1100000.0,4889.0,87550638,duplex,Barcelona,3,False,225.0,good,"Sant Gervasi - Galvany, Barcelona",Dúplex en Calle de Ganduxer,https://img3.idealista.com/blur/WEB_LISTING/0/id.pro.es.image.master/07/b8/5e/754571298.jpg,https://www.idealista.com/inmueble/87550638/
49,Calle del Dos de Maig,2,es,,flat,Eixample,True,2853,1,False,False,True,True,True,41.4102389,2.1782718,Barcelona,La Sagrada Família,False,,21,sale,,,,420000.0,4468.0,87550636,flat,Barcelona,4,False,94.0,good,"La Sagrada Família, Barcelona",Piso en Calle del Dos de Maig,https://img3.idealista.com/blur/WEB_LISTING/0/id.pro.es.image.master/af/0e/5b/754561603.jpg,https://www.idealista.com/inmueble/87550636/
0,Calle de Jericó,2,es,duplex,flat,Horta Guinardó,True,DF01,bj,False,False,True,False,False,41.4229642,2.1408312,Barcelona,Sant Genís Dels Agudells - Montbau,False,,28,sale,True,True,,550000.0,3667.0,87550542,duplex,Barcelona,3,False,150.0,good,"Sant Genís Dels Agudells - Montbau, Barcelona",Dúplex en Calle de Jericó,https://img3.idealista.com/blur/WEB_LISTING/0/id.pro.es.image.master/17/c8/df/724513091.jpg,https://www.idealista.com/inmueble/87550542/
1,Avenida Diagonal,2,es,,flat,Eixample,True,V0126H,1,False,False,True,True,False,41.3999384,2.1734101,Barcelona,El Fort Pienc,False,,26,sale,,,,500000.0,4717.0,87549285,flat,Barcelona,4,False,106.0,good,"El Fort Pienc, Barcelona",Piso en Avenida Diagonal,https://img3.idealista.com/blur/WEB_LISTING/0/id.pro.es.image.master/9a/8c/bd/724481526.jpg,https://www.idealista.com/inmueble/87549285/
2,"Padilla, 212",3,es,,flat,Eixample,True,,1,False,False,True,False,False,41.4042179,2.179452,Barcelona,La Sagrada Família,False,,15,sale,,,,480000.0,4800.0,87550235,flat,Barcelona,3,True,100.0,good,"La Sagrada Família, Barcelona","Piso en Padilla, 212",https://img3.idealista.com/blur/WEB_LISTING/0/id.pro.es.image.master/93/4d/a9/724506788.jpg,https://www.idealista.com/inmueble/87550235/
3,Clementina Arderiu,1,es,,flat,Sant Martí,True,V-97118,1,False,False,True,False,False,41.4217453,2.2123514,Barcelona,La Verneda i la Pau,False,,13,sale,,,,150000.0,2500.0,87550162,flat,Barcelona,3,False,60.0,good,"La Verneda i la Pau, Barcelona",Piso en Clementina Arderiu,https://img3.idealista.com/blur/WEB_LISTING/0/id.pro.es.image.master/fc/d8/08/724504472.jpg,https://www.idealista.com/inmueble/87550162/
4,Calle Coruña,1,es,,flat,Sant Martí,True,BARRIOCLOT,1,False,False,True,False,False,41.4060683,2.1853293,Barcelona,El Clot,False,,20,sale,,,,220000.0,3235.0,84232582,flat,Barcelona,3,False,68.0,renew,"El Clot, Barcelona",Piso en Calle Coruña,https://img3.idealista.com/blur/WEB_LISTING/0/id.pro.es.image.master/00/46/b8/753788441.jpg,https://www.idealista.com/inmueble/84232582/
5,Calle del Torrent de l'Olla,3,es,duplex,flat,Gràcia,True,TORRENT DE L'OLLA Á,5,False,False,True,False,False,41.4060306,2.1529677,Barcelona,Vila de Gràcia,False,,39,sale,,,,1100000.0,4583.0,87549947,duplex,Barcelona,6,False,240.0,good,"Vila de Gràcia, Barcelona",Dúplex en Calle del Torrent de l'Olla,https://img3.idealista.com/blur/WEB_LISTING/0/id.pro.es.image.master/59/86/52/724498279.jpg,https://www.idealista.com/inmueble/87549947/
6,barrio La Dreta de l'Eixample,2,es,,flat,Eixample,False,W-028PQ6,1,False,False,True,True,False,41.392668,2.1688944,Barcelona,La Dreta de l'Eixample,False,,13,sale,,,,788000.0,9057.0,87549899,flat,Barcelona,2,False,87.0,good,"La Dreta de l'Eixample, Barcelona",Piso,https://img3.idealista.com/blur/WEB_LISTING/0/id.pro.es.image.master/b5/88/69/764157138.jpg,https://www.idealista.com/inmueble/87549899/
7,barrio Vallcarca i els Penitents,1,es,,flat,Gràcia,True,26980,4,False,False,True,True,True,41.4103239,2.1479217,Barcelona,Vallcarca i els Penitents,False,,26,sale,,,,398000.0,4422.0,87549898,flat,Barcelona,3,False,90.0,good,"Vallcarca i els Penitents, Barcelona",Piso,https://img3.idealista.com/blur/WEB_LISTING/0/id.pro.es.image.master/09/59/9a/724496973.jpg,https://www.idealista.com/inmueble/87549898/
8,barrio Vallcarca i els Penitents,2,es,penthouse,flat,Gràcia,False,W-02GBNR,3,False,False,True,True,False,41.4095349,2.1470492,Barcelona,Vallcarca i els Penitents,False,,37,sale,,,,550000.0,5046.0,86436171,penthouse,Barcelona,2,False,109.0,good,"Vallcarca i els Penitents, Barcelona",Ático,https://img3.idealista.com/blur/WEB_LISTING/0/id.pro.es.image.master/1e/1b/05/756013976.jpg,https://www.idealista.com/inmueble/86436171/
9,barrio El Gòtic,3,es,,flat,Ciutat Vella,True,26913,4,False,False,True,True,True,41.3867322,2.1739566,Barcelona,El Gòtic,False,,45,sale,,,,2050000.0,4525.0,87549880,flat,Barcelona,8,False,453.0,good,"El Gòtic, Barcelona",Piso,https://img3.idealista.com/blur/WEB_LISTING/0/id.pro.es.image.master/35/10/9d/724496560.jpg,https://www.idealista.com/inmueble/87549880/
10,barrio Sant Pere - Santa Caterina i la Ribera,2,es,,flat,Ciutat Vella,True,23072,4,False,False,True,True,False,41.3817585,2.1805788,Barcelona,Sant Pere - Santa Caterina i la Ribera,False,,7,sale,,,,985000.0,7138.0,39896985,flat,Barcelona,4,False,138.0,good,"Sant Pere - Santa Caterina i la Ribera, Barcelona",Piso,https://img3.idealista.com/blur/WEB_LISTING/0/id.pro.es.image.master/6a/6d/ea/724496542.jpg,https://www.idealista.com/inmueble/39896985/
11,barrio Sant Pere - Santa Caterina i la Ribera,2,es,,flat,Ciutat Vella,True,23071,3,False,False,True,True,False,41.3820585,2.1795788,Barcelona,Sant Pere - Santa Caterina i la Ribera,False,,7,sale,,,,960000.0,6957.0,87549873,flat,Barcelona,4,False,138.0,good,"Sant Pere - Santa Caterina i la Ribera, Barcelona",Piso,https://img3.idealista.com/blur/WEB_LISTING/0/id.pro.es.image.master/ae/3e/c0/724496464.jpg,https://www.idealista.com/inmueble/87549873/
12,barrio Sant Pere - Santa Caterina i la Ribera,2,es,,flat,Ciutat Vella,True,23070,2,False,False,True,True,False,41.3836585,2.1804788,Barcelona,Sant Pere - Santa Caterina i la Ribera,False,,7,sale,,,,883000.0,6399.0,39896984,flat,Barcelona,4,False,138.0,good,"Sant Pere - Santa Caterina i la Ribera, Barcelona",Piso,https://img3.idealista.com/blur/WEB_LISTING/0/id.pro.es.image.master/a9/67/d7/724496403.jpg,https://www.idealista.com/inmueble/39896984/
13,Calle de Casp,1,es,penthouse,flat,Eixample,True,54263,5,False,False,True,False,True,41.3927618,2.1765774,Barcelona,La Dreta de l'Eixample,False,,16,sale,,,,525000.0,8750.0,87549382,penthouse,Barcelona,2,False,60.0,good,"La Dreta de l'Eixample, Barcelona",Ático en Calle de Casp,https://img3.idealista.com/blur/WEB_LISTING/0/id.pro.es.image.master/4c/fc/2c/724483013.jpg,https://www.idealista.com/inmueble/87549382/
14,barrio La Salut,2,es,duplex,flat,Gràcia,False,B-000106,bj,False,False,False,False,False,41.4114147,2.1480434,Barcelona,La Salut,False,,13,sale,,,,295000.0,3138.0,87548903,duplex,Barcelona,2,False,94.0,good,"La Salut, Barcelona",Dúplex,https://img3.idealista.com/blur/WEB_LISTING/0/id.pro.es.image.master/11/8c/3f/724475899.jpg,https://www.idealista.com/inmueble/87548903/
15,Calle Maresme,1,es,,flat,Sant Martí,True,10393,2,False,False,True,False,False,41.4242432,2.2010851,Barcelona,La Verneda i la Pau,False,,14,sale,,,,210000.0,2625.0,87548472,flat,Barcelona,3,False,80.0,good,"La Verneda i la Pau, Barcelona",Piso en Calle Maresme,https://img3.idealista.com/blur/WEB_LISTING/0/id.pro.es.image.master/80/4e/cb/724465750.jpg,https://www.idealista.com/inmueble/87548472/
16,barrio Hostafrancs,2,es,,flat,Sants-Montjuïc,True,BCN06236,1,False,False,True,False,False,41.3757431,2.1451555,Barcelona,Hostafrancs,False,,19,sale,True,False,33000.0,390000.0,5065.0,87548178,flat,Barcelona,2,False,77.0,good,"Hostafrancs, Barcelona",Piso,https://img3.idealista.com/blur/WEB_LISTING/0/id.pro.es.image.master/56/4e/1e/724456623.jpg,https://www.idealista.com/inmueble/87548178/
17,Calle de la Marina,1,es,,flat,Eixample,True,Marina- Fort Pienc,6,False,False,True,True,False,41.3985987,2.1862836,Barcelona,El Fort Pienc,False,,49,sale,,,,390000.0,4432.0,87548066,flat,Barcelona,3,False,88.0,good,"El Fort Pienc, Barcelona",Piso en Calle de la Marina,https://img3.idealista.com/blur/WEB_LISTING/0/id.pro.es.image.master/c7/77/90/724453939.jpg,https://www.idealista.com/inmueble/87548066/
18,Calle del Rosselló,3,es,,flat,Eixample,True,VB1910060,5,False,False,True,False,True,41.3857804,2.1468262,Barcelona,La Nova Esquerra de l'Eixample,False,,37,sale,,,,998000.0,5280.0,87547756,flat,Barcelona,3,False,189.0,good,"La Nova Esquerra de l'Eixample, Barcelona",Piso en Calle del Rosselló,https://img3.idealista.com/blur/WEB_LISTING/0/id.pro.es.image.master/46/03/8e/761767178.jpg,https://www.idealista.com/inmueble/87547756/
19,Calle d'Aribau,2,es,,flat,Eixample,True,,8,False,False,True,True,False,41.3901641,2.1567413,Barcelona,L'Antiga Esquerra de l'Eixample,False,,22,sale,,,,929000.0,4403.0,87546289,flat,Barcelona,3,False,211.0,renew,"L'Antiga Esquerra de l'Eixample, Barcelona",Piso en Calle d'Aribau,https://img3.idealista.com/blur/WEB_LISTING/0/id.pro.es.image.master/a4/17/0e/724436283.jpg,https://www.idealista.com/inmueble/87546289/
20,Calle de Sardenya,2,es,,flat,Gràcia,True,V-461,bj,False,False,True,False,False,41.4052276,2.1695572,Barcelona,El Camp d'En Grassot i Gràcia Nova,False,,29,sale,,,,360000.0,2727.0,87547581,flat,Barcelona,5,False,132.0,renew,"El Camp d'En Grassot i Gràcia Nova, Barcelona",Piso en Calle de Sardenya,https://img3.idealista.com/blur/WEB_LISTING/0/id.pro.es.image.master/d4/2b/6e/758882699.jpg,https://www.idealista.com/inmueble/87547581/
21,Calle de Sardenya,1,es,,flat,Eixample,True,54244,3,False,False,True,False,True,41.4026553,2.1752231,Barcelona,La Sagrada Família,False,,31,sale,,,,425000.0,5822.0,87547545,flat,Barcelona,2,False,73.0,good,"La Sagrada Família, Barcelona",Piso en Calle de Sardenya,https://img3.idealista.com/blur/WEB_LISTING/0/id.pro.es.image.master/5a/d8/fd/724431474.jpg,https://www.idealista.com/inmueble/87547545/
22,Calle d'Aragó,1,es,,flat,Eixample,True,VB1910059,2,False,False,True,False,True,41.4003693,2.1763753,Barcelona,El Fort Pienc,False,,24,sale,,,,369000.0,3690.0,87547280,flat,Barcelona,3,False,100.0,good,"El Fort Pienc, Barcelona",Piso en Calle d'Aragó,https://img3.idealista.com/blur/WEB_LISTING/0/id.pro.es.image.master/1a/f4/fc/761767154.jpg,https://www.idealista.com/inmueble/87547280/
23,barrio Sant Gervasi - Galvany,2,es,,flat,Sarrià-Sant Gervasi,True,ADD1490,3,False,False,True,False,False,41.3928303,2.1430546,Barcelona,Sant Gervasi - Galvany,False,,19,sale,,,,650000.0,7065.0,87547331,flat,Barcelona,2,False,92.0,good,"Sant Gervasi - Galvany, Barcelona",Piso,https://img3.idealista.com/blur/WEB_LISTING/0/id.pro.es.image.master/b9/10/de/764401206.jpg,https://www.idealista.com/inmueble/87547331/
24,Plaza de Francesc Macià,1,es,,flat,Sarrià-Sant Gervasi,True,ADD1489,6,False,False,True,False,True,41.3923303,2.1442546,Barcelona,Sant Gervasi - Galvany,False,,19,sale,,,,490000.0,5568.0,87547370,flat,Barcelona,2,False,88.0,good,"Sant Gervasi - Galvany, Barcelona",Piso en Plaza de Francesc Macià,https://img3.idealista.com/blur/WEB_LISTING/0/id.pro.es.image.master/a8/f7/c0/764401168.jpg,https://www.idealista.com/inmueble/87547370/
25,Plaza de Francesc Macià,1,es,,flat,Sarrià-Sant Gervasi,True,ADD1488,6,False,False,True,False,True,41.3938303,2.1439546,Barcelona,Sant Gervasi - Galvany,False,,23,sale,,,,590000.0,6484.0,87547368,flat,Barcelona,2,False,91.0,good,"Sant Gervasi - Galvany, Barcelona",Piso en Plaza de Francesc Macià,https://img3.idealista.com/blur/WEB_LISTING/0/id.pro.es.image.master/91/98/94/764401103.jpg,https://www.idealista.com/inmueble/87547368/
26,Calle de Sant Pere Mitjà,1,es,,flat,Ciutat Vella,True,2105,5,False,False,False,False,False,41.3875278,2.1781273,Barcelona,Sant Pere - Santa Caterina i la Ribera,False,,19,sale,,,,247000.0,4411.0,87546709,flat,Barcelona,3,False,56.0,good,"Sant Pere - Santa Caterina i la Ribera, Barcelona",Piso en Calle de Sant Pere Mitjà,https://img3.idealista.com/blur/WEB_LISTING/0/id.pro.es.image.master/a4/3a/9f/724402624.jpg,https://www.idealista.com/inmueble/87546709/
27,Calle de Padilla,3,es,,flat,Eixample,True,BCD49C89,1,False,False,True,False,False,41.4029179,2.177552,Barcelona,La Sagrada Família,False,,31,sale,,,,480000.0,4528.0,87546707,flat,Barcelona,3,False,106.0,good,"La Sagrada Família, Barcelona",Piso en Calle de Padilla,https://img3.idealista.com/blur/WEB_LISTING/0/id.pro.es.image.master/c7/76/60/746965456.jpg,https://www.idealista.com/inmueble/87546707/
28,Vi agusta,5,es,,flat,Sarrià-Sant Gervasi,True,VA1289,3,False,False,True,True,False,41.3977622,2.1353163,Barcelona,Sant Gervasi - Galvany,False,,16,sale,True,True,,1750000.0,5573.0,87546355,flat,Barcelona,5,False,314.0,renew,"Sant Gervasi - Galvany, Barcelona",Piso en Vi agusta,https://img3.idealista.com/blur/WEB_LISTING/0/id.pro.es.image.master/1a/18/c4/724394289.jpg,https://www.idealista.com/inmueble/87546355/
29,"Calle de Sardenya, 409 -393",2,es,,flat,Gràcia,False,I-000360,en,False,False,True,True,False,41.4072412,2.168206,Barcelona,El Camp d'En Grassot i Gràcia Nova,False,,20,sale,,,,389000.0,3269.0,87546460,flat,Barcelona,2,True,119.0,good,"El Camp d'En Grassot i Gràcia Nova, Barcelona","Piso en Calle de Sardenya, 409 -393",https://img3.idealista.com/blur/WEB_LISTING/0/id.pro.es.image.master/d5/0c/3f/724396531.jpg,https://www.idealista.com/inmueble/87546460/
30,barrio Pedralbes,5,es,independantHouse,chalet,Les Corts,False,2303,,False,False,,True,False,41.3912424,2.1047336,Barcelona,Pedralbes,False,,46,sale,True,True,,2600000.0,5221.0,87543587,chalet,Barcelona,7,False,498.0,good,"Pedralbes, Barcelona",Casa independiente,https://img3.idealista.com/blur/WEB_LISTING/0/id.pro.es.image.master/bf/46/ed/724316049.jpg,https://www.idealista.com/inmueble/87543587/
31,GRAN VIA CORTS CATALANES,2,es,,flat,Sants-Montjuïc,True,V 212,5,False,False,True,False,False,41.370745,2.1416801,Barcelona,La Font de la Guatlla,False,,35,sale,,,,430000.0,2688.0,87512948,flat,Barcelona,5,False,160.0,good,"La Font de la Guatlla, Barcelona",Piso en GRAN VIA CORTS CATALANES,https://img3.idealista.com/blur/WEB_LISTING/0/id.pro.es.image.master/03/5f/dc/723514143.jpg,https://www.idealista.com/inmueble/87512948/
32,Calle d'Entença,2,es,,flat,Eixample,True,mvh852,4,False,False,True,False,False,41.3837896,2.1468206,Barcelona,La Nova Esquerra de l'Eixample,False,,0,sale,,,,400000.0,3636.0,87545738,flat,Barcelona,4,False,110.0,good,"La Nova Esquerra de l'Eixample, Barcelona",Piso en Calle d'Entença,,https://www.idealista.com/inmueble/87545738/
33,Calle del Rosselló,2,es,,flat,Eixample,True,vhm996,1,False,False,True,False,False,41.3989548,2.1609372,Barcelona,La Dreta de l'Eixample,False,,0,sale,,,,435000.0,4350.0,87545579,flat,Barcelona,3,False,100.0,good,"La Dreta de l'Eixample, Barcelona",Piso en Calle del Rosselló,,https://www.idealista.com/inmueble/87545579/
34,barrio Vila de Gràcia,2,es,,flat,Gràcia,True,BCN06233,bj,False,False,False,True,False,41.4020901,2.1592435,Barcelona,Vila de Gràcia,False,,18,sale,,,,310000.0,4769.0,87545469,flat,Barcelona,1,False,65.0,good,"Vila de Gràcia, Barcelona",Piso,https://img3.idealista.com/blur/WEB_LISTING/0/id.pro.es.image.master/99/3c/e3/724366051.jpg,https://www.idealista.com/inmueble/87545469/
35,Calle Rocafort,1,es,,flat,Eixample,True,mvh512,5,False,False,True,False,False,41.3790841,2.151288,Barcelona,La Nova Esquerra de l'Eixample,False,,0,sale,,,,390000.0,4588.0,87545454,flat,Barcelona,4,False,85.0,renew,"La Nova Esquerra de l'Eixample, Barcelona",Piso en Calle Rocafort,,https://www.idealista.com/inmueble/87545454/
36,"Calle del Regomir, 51",2,es,,flat,Ciutat Vella,True,R-591,3,False,False,False,True,False,41.3810686,2.180247,Barcelona,El Gòtic,False,,36,sale,,,,380000.0,5352.0,87543989,flat,Barcelona,2,True,71.0,good,"El Gòtic, Barcelona","Piso en Calle del Regomir, 51",https://img3.idealista.com/blur/WEB_LISTING/0/id.pro.es.image.master/23/ee/a9/724326055.jpg,https://www.idealista.com/inmueble/87543989/
37,"Calle de la Font Honrada, 43",1,es,,flat,Sants-Montjuïc,True,VMV01,1,False,False,False,False,True,41.3726185,2.156015,Barcelona,El Poble Sec - Parc de Montjuïc,False,,24,sale,,,,230000.0,4182.0,87544258,flat,Barcelona,2,True,55.0,good,"El Poble Sec - Parc de Montjuïc, Barcelona","Piso en Calle de la Font Honrada, 43",https://img3.idealista.com/blur/WEB_LISTING/0/id.pro.es.image.master/db/fe/ba/724330923.jpg,https://www.idealista.com/inmueble/87544258/
38,Calle de Bori i Fontestà,3,es,,flat,Sarrià-Sant Gervasi,True,SP294KA,4,True,False,True,True,True,41.3935389,2.1413687,Barcelona,Sant Gervasi - Galvany,False,,26,sale,True,True,,1290000.0,5972.0,87543942,flat,Barcelona,5,False,216.0,good,"Sant Gervasi - Galvany, Barcelona",Piso en Calle de Bori i Fontestà,https://img3.idealista.com/blur/WEB_LISTING/0/id.pro.es.image.master/9e/26/19/724326398.jpg,https://www.idealista.com/inmueble/87543942/
39,Calle d'Espronceda,1,es,terracedHouse,chalet,Sant Martí,False,ES00979,1,True,False,,True,False,41.4043483,2.2051001,Barcelona,El Poblenou,False,,22,sale,,,,255000.0,3643.0,87537192,chalet,Barcelona,2,False,70.0,good,"El Poblenou, Barcelona",Chalet adosado en Calle d'Espronceda,https://img3.idealista.com/blur/WEB_LISTING/0/id.pro.es.image.master/59/84/42/749150564.jpg,https://www.idealista.com/inmueble/87537192/
