index,address,bathrooms,country,detailedType.subTypology,detailedType.typology,district,exterior,externalReference,floor,has360,has3DTour,hasLift,hasPlan,hasVideo,latitude,longitude,municipality,neighborhood,newDevelopment,newDevelopmentFinished,numPhotos,operation,parkingSpace.hasParkingSpace,parkingSpace.isParkingSpaceIncludedInPrice,parkingSpace.parkingSpacePrice,price,priceByArea,propertyCode,propertyType,province,rooms,showAddress,size,status,suggestedTexts.subtitle,suggestedTexts.title,thumbnail,url
0,barrio El Camp d'En Grassot i Gràcia Nova,3,es,,flat,Gràcia,True,ROH00349,2,False,False,True,False,False,41.4038914,2.163198,Barcelona,El Camp d'En Grassot i Gràcia Nova,False,,29,sale,,,,550000.0,4783.0,88832911,flat,Barcelona,3,False,115.0,good,"El Camp d'En Grassot i Gràcia Nova, Barcelona",Piso,https://img3.idealista.com/blur/WEB_LISTING/0/id.pro.es.image.master/1e/04/e2/758926504.jpg,https://www.idealista.com/inmueble/88832911/
1,barrio La Barceloneta,1,es,,flat,Ciutat Vella,True,,1,False,False,False,False,True,41.3814379,2.1891574,Barcelona,La Barceloneta,False,,17,sale,,,,225000.0,4412.0,88832718,flat,Barcelona,3,False,51.0,renew,"La Barceloneta, Barcelona",Piso,https://img3.idealista.com/blur/WEB_LISTING/0/id.pro.es.image.master/e1/ac/47/756526898.jpg,https://www.idealista.com/inmueble/88832718/
2,Calle de Francesc Carbonell,3,es,,flat,Sarrià-Sant Gervasi,True,ISBMS320,4,False,False,True,False,False,41.3933378,2.1250345,Barcelona,Sarrià,False,,71,sale,True,True,,1400000.0,7368.0,88470097,flat,Barcelona,4,False,190.0,good,"Sarrià, Barcelona",Piso en Calle de Francesc Carbonell,https://img3.idealista.com/blur/WEB_LISTING/0/id.pro.es.image.master/c7/b9/bd/747530604.jpg,https://www.idealista.com/inmueble/88470097/
3,Passatge de Cantí,1,es,,flat,Sant Martí,False,13525,3,False,False,True,False,False,41.4008739,2.1996701,Barcelona,El Poblenou,False,,34,sale,,,,330000.0,4074.0,88832517,flat,Barcelona,4,False,81.0,renew,"El Poblenou, Barcelona",Piso en Passatge de Cantí,https://img3.idealista.com/blur/WEB_LISTING/0/id.pro.es.image.master/dc/55/bb/758387930.jpg,https://www.idealista.com/inmueble/88832517/
4,Calle del Lleó,1,es,,flat,Ciutat Vella,True,VVA1-2002,4,False,False,False,True,False,41.3820333,2.166393,Barcelona,El Raval,False,,18,sale,,,,157000.0,3738.0,88832437,flat,Barcelona,1,False,42.0,good,"El Raval, Barcelona",Piso en Calle del Lleó,https://img3.idealista.com/blur/WEB_LISTING/0/id.pro.es.image.master/dc/12/c6/758758279.jpg,https://www.idealista.com/inmueble/88832437/
5,Salva,1,es,,flat,Sants-Montjuïc,True,077,en,False,False,True,True,True,41.3741035,2.164518,Barcelona,El Poble Sec - Parc de Montjuïc,False,,17,sale,,,,187000.0,3339.0,88832129,flat,Barcelona,3,False,56.0,good,"El Poble Sec - Parc de Montjuïc, Barcelona",Piso en Salva,https://img3.idealista.com/blur/WEB_LISTING/0/id.pro.es.image.master/f0/b0/dd/756511043.jpg,https://www.idealista.com/inmueble/88832129/
6,barrio El Raval,1,es,,flat,Ciutat Vella,True,OLG-LL259,3,False,False,True,False,False,41.3814826,2.1683728,Barcelona,El Raval,False,,19,sale,,,,259000.0,3866.0,88832201,flat,Barcelona,2,False,67.0,good,"El Raval, Barcelona",Piso,https://img3.idealista.com/blur/WEB_LISTING/0/id.pro.es.image.master/8b/ba/77/756514077.jpg,https://www.idealista.com/inmueble/88832201/
7,barrio El Raval,1,es,,flat,Ciutat Vella,False,FEC0118,3,False,False,True,False,True,41.384305,2.1642388,Barcelona,El Raval,False,,17,sale,,,,265000.0,4569.0,88832194,flat,Barcelona,2,False,58.0,good,"El Raval, Barcelona",Piso,https://img3.idealista.com/blur/WEB_LISTING/0/id.pro.es.image.master/b7/22/e6/756512162.jpg,https://www.idealista.com/inmueble/88832194/
8,Gran Via de les Corts Catalanes s/n,1,es,,flat,Sants-Montjuïc,True,,5,False,False,True,False,False,41.3687119,2.1410641,Barcelona,La Font de la Guatlla,False,,9,sale,,,,250000.0,4167.0,88832146,flat,Barcelona,3,True,60.0,good,"La Font de la Guatlla, Barcelona",Piso en Gran Via de les Corts Catalanes s/n,https://img3.idealista.com/blur/WEB_LISTING/0/id.pro.es.image.master/3d/36/49/756511413.jpg,https://www.idealista.com/inmueble/88832146/
9,MURTRA,1,es,,flat,Horta Guinardó,True,147-5693,2,False,False,False,False,False,41.4222963,2.1535187,Barcelona,El Carmel,False,,17,sale,,,,210000.0,2838.0,88831671,flat,Barcelona,3,False,74.0,good,"El Carmel, Barcelona",Piso en MURTRA,https://img3.idealista.com/blur/WEB_LISTING/0/id.pro.es.image.master/80/00/3e/756500268.jpg,https://www.idealista.com/inmueble/88831671/
10,Calle de Peníscola,1,es,penthouse,flat,Sant Andreu,True,,4,False,False,False,False,False,41.4536102,2.1892384,Barcelona,La Trinitat Vella,False,,13,sale,,,,137000.0,3044.0,88831525,penthouse,Barcelona,2,False,45.0,good,"La Trinitat Vella, Barcelona",Ático en Calle de Peníscola,https://img3.idealista.com/blur/WEB_LISTING/0/id.pro.es.image.master/6b/a7/3c/756495218.jpg,https://www.idealista.com/inmueble/88831525/
11,"Calle de Sicília, 242",2,es,,flat,Eixample,False,sicilia4hPP,4,False,False,True,False,False,41.3996397,2.176245,Barcelona,El Fort Pienc,False,,27,sale,,,,360000.0,3462.0,88831548,flat,Barcelona,4,True,104.0,renew,"El Fort Pienc, Barcelona","Piso en Calle de Sicília, 242",https://img3.idealista.com/blur/WEB_LISTING/0/id.pro.es.image.master/c5/93/fa/756495890.jpg,https://www.idealista.com/inmueble/88831548/
12,barrio Sant Antoni,2,es,,flat,Eixample,False,S179,3,False,False,True,False,False,41.3847631,2.1611339,Barcelona,Sant Antoni,False,,18,sale,,,,460000.0,4694.0,88831530,flat,Barcelona,2,False,98.0,good,"Sant Antoni, Barcelona",Piso,https://img3.idealista.com/blur/WEB_LISTING/0/id.pro.es.image.master/23/df/f4/756495468.jpg,https://www.idealista.com/inmueble/88831530/
13,Plaza de l'Olivereta,1,es,semidetachedHouse,chalet,Sants-Montjuïc,False,PB-BC270K,,False,False,,False,True,41.3736545,2.1273494,Barcelona,Sants - Badal,False,,32,sale,,,,270000.0,1929.0,88831174,chalet,Barcelona,3,False,140.0,renew,"Sants - Badal, Barcelona",Chalet pareado en Plaza de l'Olivereta,https://img3.idealista.com/blur/WEB_LISTING/0/id.pro.es.image.master/f7/df/0a/756493519.jpg,https://www.idealista.com/inmueble/88831174/
14,"Ronda de Sant Pere, 20",2,es,,flat,Eixample,False,62352,,False,False,,False,False,41.3885939,2.1722137,Barcelona,La Dreta de l'Eixample,False,,14,sale,,,,725000.0,3816.0,88831468,flat,Barcelona,5,True,190.0,,"La Dreta de l'Eixample, Barcelona","Piso en Ronda de Sant Pere, 20",https://img3.idealista.com/blur/WEB_LISTING/0/id.pro.es.image.master/45/7c/73/756494100.jpg,https://www.idealista.com/inmueble/88831468/
15,Calle dels Canvis Vells,1,es,,flat,Ciutat Vella,True,BORN -220,2,False,False,False,False,True,41.3845031,2.1841945,Barcelona,Sant Pere - Santa Caterina i la Ribera,False,,16,sale,,,,220000.0,3235.0,88831113,flat,Barcelona,2,False,68.0,good,"Sant Pere - Santa Caterina i la Ribera, Barcelona",Piso en Calle dels Canvis Vells,https://img3.idealista.com/blur/WEB_LISTING/0/id.pro.es.image.master/90/8d/c2/756488482.jpg,https://www.idealista.com/inmueble/88831113/
16,Gran Via de les Corts Catalanes,4,es,,flat,Eixample,True,DM023,4,False,False,True,True,True,41.3890734,2.1666985,Barcelona,La Dreta de l'Eixample,False,,44,sale,,,,1290000.0,4831.0,88790955,flat,Barcelona,4,False,267.0,good,"La Dreta de l'Eixample, Barcelona",Piso en Gran Via de les Corts Catalanes,https://img3.idealista.com/blur/WEB_LISTING/0/id.pro.es.image.master/03/a5/02/755458704.jpg,https://www.idealista.com/inmueble/88790955/
17,barrio L'Antiga Esquerra de l'Eixample,1,es,studio,flat,Eixample,True,037-5168,3,False,False,True,False,False,41.3878261,2.1565011,Barcelona,L'Antiga Esquerra de l'Eixample,False,,16,sale,,,,139000.0,4212.0,88830884,studio,Barcelona,0,False,33.0,good,"L'Antiga Esquerra de l'Eixample, Barcelona",Estudio,https://img3.idealista.com/blur/WEB_LISTING/0/id.pro.es.image.master/be/2f/d2/756481602.jpg,https://www.idealista.com/inmueble/88830884/
18,almansa,1,es,,flat,Nou Barris,True,V/00068,3,False,False,False,False,False,41.4477777,2.1739089,Barcelona,Les Roquetes - Canyelles,False,,11,sale,,,,129000.0,2048.0,88830677,flat,Barcelona,3,False,63.0,good,"Les Roquetes - Canyelles, Barcelona",Piso en almansa,https://img3.idealista.com/blur/WEB_LISTING/0/id.pro.es.image.master/3b/37/d4/758538142.jpg,https://www.idealista.com/inmueble/88830677/
19,barrio La Barceloneta,1,es,,flat,Ciutat Vella,True,85476,,False,False,False,False,False,41.378425,2.1912273,Barcelona,La Barceloneta,False,,19,sale,,,,397000.0,5671.0,88830942,flat,Barcelona,2,False,70.0,,"La Barceloneta, Barcelona",Piso,https://img3.idealista.com/blur/WEB_LISTING/0/id.pro.es.image.master/7d/07/85/756743497.jpg,https://www.idealista.com/inmueble/88830942/
20,Calle d'en Grassot,1,es,penthouse,flat,Gràcia,True,8252,,False,False,True,True,True,41.4051434,2.1693125,Barcelona,El Camp d'En Grassot i Gràcia Nova,False,,37,sale,,,,395000.0,5896.0,88830935,penthouse,Barcelona,1,False,67.0,,"El Camp d'En Grassot i Gràcia Nova, Barcelona",Ático en Calle d'en Grassot,https://img3.idealista.com/blur/WEB_LISTING/0/id.pro.es.image.master/63/9c/c6/756481165.jpg,https://www.idealista.com/inmueble/88830935/
21,Calle de Llorens i Barba,2,es,,flat,Horta Guinardó,True,V-4028,bj,False,False,False,True,False,41.413125,2.1707392,Barcelona,El Baix Guinardó,False,,24,sale,,,,190000.0,2289.0,88830782,flat,Barcelona,2,False,83.0,good,"El Baix Guinardó, Barcelona",Piso en Calle de Llorens i Barba,https://img3.idealista.com/blur/WEB_LISTING/0/id.pro.es.image.master/02/35/f8/756479030.jpg,https://www.idealista.com/inmueble/88830782/
22,Calle d'Hedilla,1,es,,flat,Horta Guinardó,True,1113 HEDILLA,2,False,False,False,False,False,41.4351103,2.1586983,Barcelona,Horta,False,,15,sale,,,,160000.0,2807.0,88830859,flat,Barcelona,3,False,57.0,renew,"Horta, Barcelona",Piso en Calle d'Hedilla,https://img3.idealista.com/blur/WEB_LISTING/0/id.pro.es.image.master/18/6c/ae/756480148.jpg,https://www.idealista.com/inmueble/88830859/
23,Calle de Xifré,1,es,penthouse,flat,Sant Martí,True,XIFRER,7,False,False,True,False,False,41.4087611,2.1834071,Barcelona,El Camp de l'Arpa del Clot,False,,13,sale,,,,285000.0,3800.0,88830614,penthouse,Barcelona,4,False,75.0,good,"El Camp de l'Arpa del Clot, Barcelona",Ático en Calle de Xifré,https://img3.idealista.com/blur/WEB_LISTING/0/id.pro.es.image.master/29/2e/a4/756474952.jpg,https://www.idealista.com/inmueble/88830614/
24,CAN ROS,1,es,,flat,Sant Andreu,True,CR-4H-CANROS,1,False,False,True,False,False,41.4263581,2.1835773,Barcelona,El Congrés i els Indians,False,,25,sale,,,,180000.0,2250.0,88830841,flat,Barcelona,4,False,80.0,renew,"El Congrés i els Indians, Barcelona",Piso en CAN ROS,https://img3.idealista.com/blur/WEB_LISTING/0/id.pro.es.image.master/8a/92/aa/756479697.jpg,https://www.idealista.com/inmueble/88830841/
25,"Calle de Muntaner, 449",3,es,,flat,Sarrià-Sant Gervasi,True,M449-4,4,False,False,True,True,False,41.4014066,2.13963,Barcelona,Sant Gervasi - Galvany,False,,29,sale,,,,990000.0,3913.0,88830837,flat,Barcelona,6,True,253.0,,"Sant Gervasi - Galvany, Barcelona","Piso en Calle de Muntaner, 449",https://img3.idealista.com/blur/WEB_LISTING/0/id.pro.es.image.master/09/0c/59/756479427.jpg,https://www.idealista.com/inmueble/88830837/
26,barrio Les Roquetes - Canyelles,1,es,,flat,Nou Barris,True,M - OR ROQUETES,1,False,False,False,False,False,41.445585,2.1780168,Barcelona,Les Roquetes - Canyelles,False,,21,sale,,,,165000.0,2463.0,88830572,flat,Barcelona,3,False,67.0,good,"Les Roquetes - Canyelles, Barcelona",Piso,https://img3.idealista.com/blur/WEB_LISTING/0/id.pro.es.image.master/64/0f/39/756473658.jpg,https://www.idealista.com/inmueble/88830572/
27,barrio El Raval,4,es,,flat,Ciutat Vella,True,037-5167,1,False,False,False,False,False,41.3787539,2.1749866,Barcelona,El Raval,False,,24,sale,,,,499000.0,3441.0,88797783,flat,Barcelona,4,False,145.0,good,"El Raval, Barcelona",Piso,https://img3.idealista.com/blur/WEB_LISTING/0/id.pro.es.image.master/f0/e4/ea/755650860.jpg,https://www.idealista.com/inmueble/88797783/
28,Calle del Cadí,1,es,,flat,Nou Barris,True,Marc o Gabriel Petrarca,4,False,False,True,False,False,41.4334267,2.1678445,Barcelona,Can Peguera - El Turó de la Peira,False,,12,sale,,,,135000.0,2250.0,88830647,flat,Barcelona,3,False,60.0,renew,"Can Peguera - El Turó de la Peira, Barcelona",Piso en Calle del Cadí,https://img3.idealista.com/blur/WEB_LISTING/0/id.pro.es.image.master/46/c7/b6/756474697.jpg,https://www.idealista.com/inmueble/88830647/
29,barrio Sant Martí de Provençals,2,es,,flat,Sant Martí,True,134/A-289,2,False,False,True,False,False,41.4185091,2.1968302,Barcelona,Sant Martí de Provençals,False,,23,sale,,,,279000.0,3100.0,88830606,flat,Barcelona,3,False,90.0,good,"Sant Martí de Provençals, Barcelona",Piso,https://img3.idealista.com/blur/WEB_LISTING/0/id.pro.es.image.master/66/ff/c8/756473981.jpg,https://www.idealista.com/inmueble/88830606/
30,Calle del Rosselló,2,es,,flat,Eixample,True,VH.Rossello,1,False,False,False,False,False,41.406125,2.1752984,Barcelona,La Sagrada Família,False,,27,sale,,,,300000.0,4688.0,88830440,flat,Barcelona,2,False,64.0,good,"La Sagrada Família, Barcelona",Piso en Calle del Rosselló,https://img3.idealista.com/blur/WEB_LISTING/0/id.pro.es.image.master/ff/95/53/756469154.jpg,https://www.idealista.com/inmueble/88830440/
31,DIligencies,1,es,,flat,Sants-Montjuïc,True,238095,2,False,False,False,False,False,41.3630323,2.1448131,Barcelona,La Marina del Port,False,,20,sale,,,,164520.0,2165.0,88830328,flat,Barcelona,3,False,76.0,good,"La Marina del Port, Barcelona",Piso en DIligencies,https://img3.idealista.com/blur/WEB_LISTING/0/id.pro.es.image.master/79/4f/47/756467111.jpg,https://www.idealista.com/inmueble/88830328/
32,Calle de Casas i Amigó,1,es,,flat,Nou Barris,False,Bajos Sebas,bj,False,False,True,False,False,41.4335427,2.1756215,Barcelona,Porta,False,,23,sale,,,,267000.0,4108.0,88830086,flat,Barcelona,3,False,65.0,good,"Porta, Barcelona",Piso en Calle de Casas i Amigó,https://img3.idealista.com/blur/WEB_LISTING/0/id.pro.es.image.master/b3/40/20/756460823.jpg,https://www.idealista.com/inmueble/88830086/
33,"CAPITAN ARENAS, 27",1,es,studio,flat,Les Corts,True,V200206,10,False,False,True,False,False,41.3910641,2.1255005,Barcelona,Pedralbes,False,,1,sale,,,,445000.0,7417.0,88830121,studio,Barcelona,0,True,60.0,renew,"Pedralbes, Barcelona","Estudio en CAPITAN ARENAS, 27",https://img3.idealista.com/blur/WEB_LISTING/0/id.pro.es.image.master/45/d4/00/756461669.jpg,https://www.idealista.com/inmueble/88830121/
34,COIMBRA,1,es,,flat,Horta Guinardó,True,ALM Coimbra,bj,False,False,True,True,True,41.4344178,2.153846,Barcelona,Horta,False,,20,sale,,,,220000.0,2973.0,88830021,flat,Barcelona,3,False,74.0,renew,"Horta, Barcelona",Piso en COIMBRA,https://img3.idealista.com/blur/WEB_LISTING/0/id.pro.es.image.master/c8/13/91/756459395.jpg,https://www.idealista.com/inmueble/88830021/
35,barrio La Dreta de l'Eixample,2,es,,flat,Eixample,False,W-02I7SZ,2,False,False,True,False,False,41.3968889,2.1680895,Barcelona,La Dreta de l'Eixample,False,,20,sale,,,,975000.0,7169.0,88829971,flat,Barcelona,3,False,136.0,good,"La Dreta de l'Eixample, Barcelona",Piso,https://img3.idealista.com/blur/WEB_LISTING/0/id.pro.es.image.master/f7/58/dc/757012026.jpg,https://www.idealista.com/inmueble/88829971/
36,barrio Les Roquetes - Canyelles,1,es,,flat,Nou Barris,True,J021,5,False,False,False,False,False,41.44488,2.1776419,Barcelona,Les Roquetes - Canyelles,False,,15,sale,,,,120000.0,1644.0,88829950,flat,Barcelona,3,False,73.0,renew,"Les Roquetes - Canyelles, Barcelona",Piso,https://img3.idealista.com/blur/WEB_LISTING/0/id.pro.es.image.master/04/09/83/756457708.jpg,https://www.idealista.com/inmueble/88829950/
37,La Manxa,1,es,,flat,Horta Guinardó,True,Hestia156,2,False,False,True,True,False,41.422051,2.1530622,Barcelona,El Carmel,False,,17,sale,True,False,15000.0,135000.0,2015.0,88829820,flat,Barcelona,3,False,67.0,good,"El Carmel, Barcelona",Piso en La Manxa,https://img3.idealista.com/blur/WEB_LISTING/0/id.pro.es.image.master/38/9b/fe/756454470.jpg,https://www.idealista.com/inmueble/88829820/
38,"JOSEP TARRADELLAS, 138",1,es,,flat,Eixample,True,V200205,1,False,False,True,True,False,41.3919477,2.1445176,Barcelona,L'Antiga Esquerra de l'Eixample,False,,2,sale,,,,475000.0,5655.0,88829815,flat,Barcelona,3,True,84.0,good,"L'Antiga Esquerra de l'Eixample, Barcelona","Piso en JOSEP TARRADELLAS, 138",https://img3.idealista.com/blur/WEB_LISTING/0/id.pro.es.image.master/dc/4f/4c/756454298.jpg,https://www.idealista.com/inmueble/88829815/
39,"Piquer, 56",3,es,,flat,Sants-Montjuïc,True,,bj,False,False,True,False,False,41.3737671,2.1675405,Barcelona,El Poble Sec - Parc de Montjuïc,False,,16,sale,,,,380000.0,4471.0,88829806,flat,Barcelona,2,True,85.0,good,"El Poble Sec - Parc de Montjuïc, Barcelona","Piso en Piquer, 56",https://img3.idealista.com/blur/WEB_LISTING/0/id.pro.es.image.master/c4/70/87/756453967.jpg,https://www.idealista.com/inmueble/88829806/
40,barrio Vila de Gràcia,1,es,,flat,Gràcia,False,71140,,False,False,,False,False,41.4057246,2.1587838,Barcelona,Vila de Gràcia,False,,23,sale,,,,170000.0,3373.0,88829775,flat,Barcelona,2,False,50.4,,"Vila de Gràcia, Barcelona",Piso,https://img3.idealista.com/blur/WEB_LISTING/0/id.pro.es.image.master/d0/29/ea/756453170.jpg,https://www.idealista.com/inmueble/88829775/
41,Calle del Mas Casanovas,1,es,,flat,Horta Guinardó,True,AP_NC-MASCAS,1,False,False,True,False,False,41.4128961,2.1689516,Barcelona,El Baix Guinardó,False,,23,sale,,,,290000.0,3671.0,88829055,flat,Barcelona,3,False,79.0,good,"El Baix Guinardó, Barcelona",Piso en Calle del Mas Casanovas,https://img3.idealista.com/blur/WEB_LISTING/0/id.pro.es.image.master/9c/dd/d3/756435528.jpg,https://www.idealista.com/inmueble/88829055/
42,Calle de Piferrer,1,es,,flat,Nou Barris,True,Andres,3,False,False,True,False,False,41.4350424,2.1781796,Barcelona,Porta,False,,20,sale,,,,229000.0,3181.0,88829367,flat,Barcelona,3,False,72.0,good,"Porta, Barcelona",Piso en Calle de Piferrer,https://img3.idealista.com/blur/WEB_LISTING/0/id.pro.es.image.master/c9/11/4c/756444496.jpg,https://www.idealista.com/inmueble/88829367/
43,Calle del Bisbe Laguarda,1,es,,flat,Ciutat Vella,True,,4,False,False,True,False,False,41.378907,2.1629364,Barcelona,El Raval,False,,17,sale,,,,239000.0,3366.0,88829557,flat,Barcelona,4,False,71.0,good,"El Raval, Barcelona",Piso en Calle del Bisbe Laguarda,https://img3.idealista.com/blur/WEB_LISTING/0/id.pro.es.image.master/45/60/cb/756447545.jpg,https://www.idealista.com/inmueble/88829557/
44,barrio El Raval,1,es,,flat,Ciutat Vella,False,W-02GB77,1,False,False,True,False,False,41.3746399,2.1694992,Barcelona,El Raval,False,,38,sale,True,True,,370000.0,3776.0,88829551,flat,Barcelona,3,False,98.0,good,"El Raval, Barcelona",Piso,https://img3.idealista.com/blur/WEB_LISTING/0/id.pro.es.image.master/b5/3a/3a/756447338.jpg,https://www.idealista.com/inmueble/88829551/
45,barrio Sant Antoni,2,es,,flat,Eixample,False,W-02I9WI,7,False,False,True,False,False,41.3803409,2.1629099,Barcelona,Sant Antoni,False,,27,sale,True,True,,680000.0,6476.0,88829363,flat,Barcelona,3,False,105.0,good,"Sant Antoni, Barcelona",Piso,https://img3.idealista.com/blur/WEB_LISTING/0/id.pro.es.image.master/97/53/a7/756443334.jpg,https://www.idealista.com/inmueble/88829363/
46,"d'america, 26",3,es,duplex,flat,Horta Guinardó,True,américa,en,False,False,True,True,True,41.4161645,2.1773979,Barcelona,El Guinardó,False,,19,sale,,,,535000.0,2892.0,88829249,duplex,Barcelona,4,True,185.0,good,"El Guinardó, Barcelona","Dúplex en d'america, 26",https://img3.idealista.com/blur/WEB_LISTING/0/id.pro.es.image.master/fd/d7/40/756441011.jpg,https://www.idealista.com/inmueble/88829249/
47,D'En Roig,1,es,,flat,Ciutat Vella,False,central-48563,1,False,False,True,False,False,41.3790601,2.1667561,Barcelona,El Raval,False,,14,sale,,,,167000.0,2783.0,88828272,flat,Barcelona,3,False,60.0,renew,"El Raval, Barcelona",Piso en D'En Roig,https://img3.idealista.com/blur/WEB_LISTING/0/id.pro.es.image.master/ed/97/2e/756434438.jpg,https://www.idealista.com/inmueble/88828272/
48,Gran Via de les Corts Catalanes,1,es,,flat,Sant Martí,True,141 Gran Via de les Corts Catalanes,bj,True,False,True,True,True,41.4162877,2.208868,Barcelona,Provençals del Poblenou,False,,17,sale,,,,250000.0,2660.0,88829148,flat,Barcelona,3,False,94.0,good,"Provençals del Poblenou, Barcelona",Piso en Gran Via de les Corts Catalanes,https://img3.idealista.com/blur/WEB_LISTING/0/id.pro.es.image.master/af/ec/80/757163684.jpg,https://www.idealista.com/inmueble/88829148/
49,barrio Sant Gervasi - La Bonanova,3,es,,flat,Sarrià-Sant Gervasi,False,W-02IBKW,1,False,False,False,True,False,41.4137985,2.1310214,Barcelona,Sant Gervasi - La Bonanova,False,,38,sale,True,True,,875000.0,4605.0,88829277,flat,Barcelona,4,False,190.0,good,"Sant Gervasi - La Bonanova, Barcelona",Piso,https://img3.idealista.com/blur/WEB_LISTING/0/id.pro.es.image.master/d6/3d/f6/756440981.jpg,https://www.idealista.com/inmueble/88829277/
0,barrio Sant Gervasi - La Bonanova,3,es,,flat,Sarrià-Sant Gervasi,False,W-02IBKW,1,False,False,False,True,False,41.4137985,2.1310214,Barcelona,Sant Gervasi - La Bonanova,False,,38,sale,True,True,,875000.0,4605.0,88829277,flat,Barcelona,4,False,190.0,good,"Sant Gervasi - La Bonanova, Barcelona",Piso,https://img3.idealista.com/blur/WEB_LISTING/0/id.pro.es.image.master/d6/3d/f6/756440981.jpg,https://www.idealista.com/inmueble/88829277/
1,barrio Sants,2,es,,flat,Sants-Montjuïc,True,W-02IA8U-PD1,1,False,False,True,True,False,41.3820705,2.1372861,Barcelona,Sants,False,,24,sale,True,False,29800.0,498800.0,6478.0,88829264,flat,Barcelona,3,False,77.0,good,"Sants, Barcelona",Piso,https://img3.idealista.com/blur/WEB_LISTING/0/id.pro.es.image.master/23/e4/84/756440617.jpg,https://www.idealista.com/inmueble/88829264/
2,"Paseo del Taulat, 168",2,es,,flat,Sant Martí,True,DM016,bj,False,False,True,False,True,41.403078,2.2109762,Barcelona,Diagonal Mar i el Front Marítim del Poblenou,False,,29,sale,True,True,,830000.0,7905.0,88574143,flat,Barcelona,4,True,105.0,good,"Diagonal Mar i el Front Marítim del Poblenou, Barcelona","Piso en Paseo del Taulat, 168",https://img3.idealista.com/blur/WEB_LISTING/0/id.pro.es.image.master/00/a2/34/749949786.jpg,https://www.idealista.com/inmueble/88574143/
3,ermengarda,1,es,,flat,Sants-Montjuïc,True,erm155,bj,False,False,False,False,True,41.3772577,2.1433516,Barcelona,Hostafrancs,False,,12,sale,,,,155000.0,3605.0,88829221,flat,Barcelona,1,False,43.0,good,"Hostafrancs, Barcelona",Piso en ermengarda,https://img3.idealista.com/blur/WEB_LISTING/0/id.pro.es.image.master/d0/a6/a2/756440072.jpg,https://www.idealista.com/inmueble/88829221/
4,Calle de Francesc Boix Campo,2,es,,flat,Sants-Montjuïc,True,Z19-02,2,False,False,True,True,False,41.3614315,2.1332773,Barcelona,La Marina del Port,False,,32,sale,True,True,,450000.0,3814.0,88829063,flat,Barcelona,4,False,118.0,good,"La Marina del Port, Barcelona",Piso en Calle de Francesc Boix Campo,https://img3.idealista.com/blur/WEB_LISTING/0/id.pro.es.image.master/c5/f7/bd/756436209.jpg,https://www.idealista.com/inmueble/88829063/
5,Calle d'Arnau d'Oms,1,es,,flat,Nou Barris,False,ArdOms159,1,False,False,True,False,True,41.4284133,2.1757419,Barcelona,Vilapicina i la Torre Llobeta,False,,19,sale,,,,159000.0,3058.0,88829136,flat,Barcelona,2,False,52.0,good,"Vilapicina i la Torre Llobeta, Barcelona",Piso en Calle d'Arnau d'Oms,https://img3.idealista.com/blur/WEB_LISTING/0/id.pro.es.image.master/c7/4b/2a/756437748.jpg,https://www.idealista.com/inmueble/88829136/
6,Calle de Petritxol,1,es,,flat,Ciutat Vella,True,PIS3457,3,False,False,False,False,False,41.3848504,2.1725168,Barcelona,El Gòtic,False,,23,sale,,,,350000.0,3070.0,88829109,flat,Barcelona,3,False,114.0,renew,"El Gòtic, Barcelona",Piso en Calle de Petritxol,https://img3.idealista.com/blur/WEB_LISTING/0/id.pro.es.image.master/bd/3f/ba/756436832.jpg,https://www.idealista.com/inmueble/88829109/
7,Calle de Coïmbra,1,es,,flat,Horta Guinardó,True,LG00565,2,False,False,False,False,True,41.4314808,2.1535574,Barcelona,Horta,False,,16,sale,,,,220000.0,3492.0,88828949,flat,Barcelona,4,False,63.0,good,"Horta, Barcelona",Piso en Calle de Coïmbra,https://img3.idealista.com/blur/WEB_LISTING/0/id.pro.es.image.master/27/95/56/756433079.jpg,https://www.idealista.com/inmueble/88828949/
8,Riera BLANCA s/n,1,es,,flat,Sants-Montjuïc,True,,1,False,False,False,False,False,41.3717953,2.1271439,Barcelona,Sants - Badal,False,,30,sale,,,,169000.0,2315.0,88828968,flat,Barcelona,3,True,73.0,good,"Sants - Badal, Barcelona",Piso en Riera BLANCA s/n,https://img3.idealista.com/blur/WEB_LISTING/0/id.pro.es.image.master/44/8c/21/756433703.jpg,https://www.idealista.com/inmueble/88828968/
9,Avenida del Paralelo,1,es,,flat,Sants-Montjuïc,True,paral285,2,False,False,True,False,True,41.3764899,2.1539543,Barcelona,El Poble Sec - Parc de Montjuïc,False,,17,sale,,,,285000.0,4071.0,88829006,flat,Barcelona,3,False,70.0,good,"El Poble Sec - Parc de Montjuïc, Barcelona",Piso en Avenida del Paralelo,https://img3.idealista.com/blur/WEB_LISTING/0/id.pro.es.image.master/e7/56/23/756434390.jpg,https://www.idealista.com/inmueble/88829006/
10,Calle de Sant Salvador,2,es,,flat,Gràcia,True,8942TSS bergua gestio,1,False,False,False,False,False,41.4091606,2.1565325,Barcelona,Vila de Gràcia,False,,40,sale,,,,390000.0,4194.0,88828947,flat,Barcelona,4,False,93.0,good,"Vila de Gràcia, Barcelona",Piso en Calle de Sant Salvador,https://img3.idealista.com/blur/WEB_LISTING/0/id.pro.es.image.master/48/e7/f1/756433056.jpg,https://www.idealista.com/inmueble/88828947/
11,Calle de Pavia,3,es,duplex,flat,Sants-Montjuïc,False,PB-PV390K,5,False,False,True,False,True,41.3733867,2.1319215,Barcelona,Sants - Badal,False,,25,sale,,,,390000.0,2438.0,88828866,duplex,Barcelona,4,False,160.0,good,"Sants - Badal, Barcelona",Dúplex en Calle de Pavia,https://img3.idealista.com/blur/WEB_LISTING/0/id.pro.es.image.master/e9/2d/bb/756431230.jpg,https://www.idealista.com/inmueble/88828866/
12,Calle DEL REPARTIDOR,2,es,duplex,flat,Gràcia,True,021-19 KIWI BRICKS,bj,False,False,True,False,False,41.409122,2.1496246,Barcelona,La Salut,False,,13,sale,,,,295000.0,3138.0,88828720,duplex,Barcelona,2,False,94.0,good,"La Salut, Barcelona",Dúplex en Calle DEL REPARTIDOR,https://img3.idealista.com/blur/WEB_LISTING/0/id.pro.es.image.master/09/22/d9/756427840.jpg,https://www.idealista.com/inmueble/88828720/
13,barrio Les Roquetes - Canyelles,1,es,,flat,Nou Barris,False,TS2-2849,2,False,False,False,False,False,41.4443003,2.1733639,Barcelona,Les Roquetes - Canyelles,False,,19,sale,,,,155000.0,2183.0,88828739,flat,Barcelona,3,False,71.0,good,"Les Roquetes - Canyelles, Barcelona",Piso,https://img3.idealista.com/blur/WEB_LISTING/0/id.pro.es.image.master/d5/82/31/756428053.jpg,https://www.idealista.com/inmueble/88828739/
14,barrio Vila de Gràcia,3,es,,flat,Gràcia,True,DV-120,8,False,False,True,False,False,41.4050653,2.1495275,Barcelona,Vila de Gràcia,False,,30,sale,True,True,,1100000.0,6832.0,88828738,flat,Barcelona,5,False,161.0,good,"Vila de Gràcia, Barcelona",Piso,https://img3.idealista.com/blur/WEB_LISTING/0/id.pro.es.image.master/95/02/a8/756428023.jpg,https://www.idealista.com/inmueble/88828738/
15,Calle de Martínez de la Rosa,1,es,penthouse,flat,Gràcia,True,BAD-GRACIA-299,2,False,False,False,True,True,41.3982628,2.1598576,Barcelona,Vila de Gràcia,False,,14,sale,,,,299000.0,4600.0,88826186,penthouse,Barcelona,2,False,65.0,good,"Vila de Gràcia, Barcelona",Ático en Calle de Martínez de la Rosa,https://img3.idealista.com/blur/WEB_LISTING/0/id.pro.es.image.master/70/10/63/756414952.jpg,https://www.idealista.com/inmueble/88826186/
16,Ronda de Sant Antoni,1,es,,flat,Eixample,True,AHB6914,,False,False,,False,False,41.3781488,2.1635574,Barcelona,Sant Antoni,False,,7,sale,,,,270000.0,5094.0,88828634,flat,Barcelona,2,False,53.0,good,"Sant Antoni, Barcelona",Piso en Ronda de Sant Antoni,https://img3.idealista.com/blur/WEB_LISTING/0/id.pro.es.image.master/45/65/e9/756426007.jpg,https://www.idealista.com/inmueble/88828634/
17,selva,2,es,,flat,Nou Barris,True,Sebas,1,False,False,True,False,False,41.4338135,2.1759353,Barcelona,Porta,False,,33,sale,,,,280000.0,2667.0,88828484,flat,Barcelona,3,False,105.0,good,"Porta, Barcelona",Piso en selva,https://img3.idealista.com/blur/WEB_LISTING/0/id.pro.es.image.master/4e/80/3f/756422681.jpg,https://www.idealista.com/inmueble/88828484/
18,Calle del Mas Casanovas,1,es,,flat,Horta Guinardó,True,MC-MASCAS NOUCASTOR,1,False,False,True,False,False,41.4114961,2.1685516,Barcelona,El Baix Guinardó,False,,26,sale,,,,290000.0,3671.0,88828519,flat,Barcelona,3,False,79.0,good,"El Baix Guinardó, Barcelona",Piso en Calle del Mas Casanovas,https://img3.idealista.com/blur/WEB_LISTING/0/id.pro.es.image.master/de/72/47/756423985.jpg,https://www.idealista.com/inmueble/88828519/
19,Calle del Bruc,2,es,,flat,Eixample,True,WEL-833_,5,False,False,True,False,False,41.3975326,2.1648965,Barcelona,La Dreta de l'Eixample,False,,17,sale,,,,750000.0,5859.0,88828507,flat,Barcelona,3,False,128.0,good,"La Dreta de l'Eixample, Barcelona",Piso en Calle del Bruc,https://img3.idealista.com/blur/WEB_LISTING/0/id.pro.es.image.master/b9/5e/b1/756423374.jpg,https://www.idealista.com/inmueble/88828507/
20,"Calle de Saragossa, 145",1,es,duplex,flat,Sarrià-Sant Gervasi,True,BH0320,bj,False,False,True,False,False,41.4050363,2.1446901,Barcelona,El Putxet i el Farró,False,,24,sale,,,,575000.0,5750.0,88828509,duplex,Barcelona,2,True,100.0,good,"El Putxet i el Farró, Barcelona","Dúplex en Calle de Saragossa, 145",https://img3.idealista.com/blur/WEB_LISTING/0/id.pro.es.image.master/f9/5e/4c/756434603.jpg,https://www.idealista.com/inmueble/88828509/
21,Calle de Palamós,1,es,,flat,Nou Barris,True,,3,False,False,True,False,False,41.4459521,2.186028,Barcelona,La Prosperitat,False,,11,sale,,,,150000.0,2500.0,88828497,flat,Barcelona,2,False,60.0,good,"La Prosperitat, Barcelona",Piso en Calle de Palamós,https://img3.idealista.com/blur/WEB_LISTING/0/id.pro.es.image.master/1e/84/53/756422630.jpg,https://www.idealista.com/inmueble/88828497/
22,Calle del Rosselló,2,es,,flat,Eixample,True,5394,1,False,False,True,False,False,41.3864019,2.1509336,Barcelona,La Nova Esquerra de l'Eixample,False,,12,sale,,,,398000.0,3402.0,88828459,flat,Barcelona,4,False,117.0,renew,"La Nova Esquerra de l'Eixample, Barcelona",Piso en Calle del Rosselló,https://img3.idealista.com/blur/WEB_LISTING/0/id.pro.es.image.master/43/78/5c/756421526.jpg,https://www.idealista.com/inmueble/88828459/
23,Calle de Ramon Albó,1,es,,flat,Sant Andreu,True,RAJERI,3,False,False,True,False,True,41.4278752,2.1756484,Barcelona,El Congrés i els Indians,False,,25,sale,,,,215000.0,3583.0,88828396,flat,Barcelona,3,False,60.0,renew,"El Congrés i els Indians, Barcelona",Piso en Calle de Ramon Albó,https://img3.idealista.com/blur/WEB_LISTING/0/id.pro.es.image.master/19/80/bb/756420854.jpg,https://www.idealista.com/inmueble/88828396/
24,Calle Viladomat,1,es,,flat,Eixample,False,238274,2,False,False,True,False,False,41.3766966,2.1619038,Barcelona,Sant Antoni,False,,15,sale,,,,248150.0,4866.0,88828274,flat,Barcelona,3,False,51.0,good,"Sant Antoni, Barcelona",Piso en Calle Viladomat,https://img3.idealista.com/blur/WEB_LISTING/0/id.pro.es.image.master/15/e5/32/756420473.jpg,https://www.idealista.com/inmueble/88828274/
25,Calle del Marquès de la Mina,1,es,,flat,Ciutat Vella,False,C123-XEV,1,False,False,,False,False,41.3817763,2.1914321,Barcelona,La Barceloneta,False,,38,sale,,,,220000.0,4889.0,88828364,flat,Barcelona,2,False,45.0,good,"La Barceloneta, Barcelona",Piso en Calle del Marquès de la Mina,https://img3.idealista.com/blur/WEB_LISTING/0/id.pro.es.image.master/35/33/93/758174473.jpg,https://www.idealista.com/inmueble/88828364/
26,Calle de Lepant,2,es,,flat,Horta Guinardó,True,SF3,4,False,False,True,True,True,41.4114556,2.1670965,Barcelona,El Baix Guinardó,False,,30,sale,,,,380000.0,3800.0,88828303,flat,Barcelona,3,False,100.0,good,"El Baix Guinardó, Barcelona",Piso en Calle de Lepant,https://img3.idealista.com/blur/WEB_LISTING/0/id.pro.es.image.master/c4/a3/24/756418063.jpg,https://www.idealista.com/inmueble/88828303/
27,barrio La Barceloneta,1,es,,flat,Ciutat Vella,True,ALG05-V39,1,False,False,False,False,False,41.379225,2.1896273,Barcelona,La Barceloneta,False,,24,sale,,,,397000.0,5838.0,88828018,flat,Barcelona,2,False,68.0,good,"La Barceloneta, Barcelona",Piso,https://img3.idealista.com/blur/WEB_LISTING/0/id.pro.es.image.master/6e/e4/b5/756416858.jpg,https://www.idealista.com/inmueble/88828018/
28,Industria,1,es,,flat,Sant Martí,False,VINDUSTRIA,5,False,False,True,False,True,41.4123264,2.1778362,Barcelona,El Camp de l'Arpa del Clot,False,,21,sale,,,,230000.0,3067.0,88828178,flat,Barcelona,3,False,75.0,renew,"El Camp de l'Arpa del Clot, Barcelona",Piso en Industria,https://img3.idealista.com/blur/WEB_LISTING/0/id.pro.es.image.master/e2/fa/7f/756415769.jpg,https://www.idealista.com/inmueble/88828178/
29,barrio El Poble Sec - Parc de Montjuïc,1,es,,flat,Sants-Montjuïc,False,19219,1,False,False,False,False,True,41.3733396,2.1615313,Barcelona,El Poble Sec - Parc de Montjuïc,False,,21,sale,,,,335000.0,5776.0,88828192,flat,Barcelona,2,False,58.0,good,"El Poble Sec - Parc de Montjuïc, Barcelona",Piso,https://img3.idealista.com/blur/WEB_LISTING/0/id.pro.es.image.master/df/72/e3/757208591.jpg,https://www.idealista.com/inmueble/88828192/
30,"Calle d'Aribau, 87",3,es,,flat,Eixample,True,JRC171,3,False,False,True,False,False,41.3895517,2.157476,Barcelona,L'Antiga Esquerra de l'Eixample,False,,49,sale,,,,649000.0,4880.0,88828109,flat,Barcelona,3,True,133.0,good,"L'Antiga Esquerra de l'Eixample, Barcelona","Piso en Calle d'Aribau, 87",https://img3.idealista.com/blur/WEB_LISTING/0/id.pro.es.image.master/fc/e3/8e/758502627.jpg,https://www.idealista.com/inmueble/88828109/
31,barrio L'Antiga Esquerra de l'Eixample,2,es,,flat,Eixample,True,VB1901003,3,False,False,True,True,True,41.3843232,2.15901,Barcelona,L'Antiga Esquerra de l'Eixample,False,,19,sale,,,,380000.0,4578.0,88828055,flat,Barcelona,2,False,83.0,good,"L'Antiga Esquerra de l'Eixample, Barcelona",Piso,https://img3.idealista.com/blur/WEB_LISTING/0/id.pro.es.image.master/56/d6/e8/756412877.jpg,https://www.idealista.com/inmueble/88828055/
32,Cantabria,1,es,,flat,Sant Martí,True,,3,False,False,True,True,True,41.4230502,2.1974745,Barcelona,La Verneda i la Pau,False,,27,sale,,,,185000.0,2467.0,88827976,flat,Barcelona,3,False,75.0,good,"La Verneda i la Pau, Barcelona",Piso en Cantabria,https://img3.idealista.com/blur/WEB_LISTING/0/id.pro.es.image.master/d2/40/9a/756410242.jpg,https://www.idealista.com/inmueble/88827976/
33,Calle de la Marina,1,es,,flat,Eixample,True,SF2,8,False,False,True,True,True,41.4022764,2.1758495,Barcelona,La Sagrada Família,False,,29,sale,,,,339000.0,5650.0,88827983,flat,Barcelona,2,False,60.0,good,"La Sagrada Família, Barcelona",Piso en Calle de la Marina,https://img3.idealista.com/blur/WEB_LISTING/0/id.pro.es.image.master/23/13/27/756411558.jpg,https://www.idealista.com/inmueble/88827983/
34,Calle de la Marina,2,es,,flat,Horta Guinardó,True,Z2-02,4,False,False,True,True,False,41.4082834,2.1686245,Barcelona,El Baix Guinardó,False,,25,sale,,,,320000.0,3404.0,88827981,flat,Barcelona,4,False,94.0,renew,"El Baix Guinardó, Barcelona",Piso en Calle de la Marina,https://img3.idealista.com/blur/WEB_LISTING/0/id.pro.es.image.master/9e/7f/01/756411292.jpg,https://www.idealista.com/inmueble/88827981/
35,Calle de Ausias March,1,es,,flat,Eixample,True,Ho20-09,6,False,False,True,False,False,41.3933357,2.179204,Barcelona,El Fort Pienc,False,,17,sale,,,,300000.0,4615.0,88827926,flat,Barcelona,3,False,65.0,renew,"El Fort Pienc, Barcelona",Piso en Calle de Ausias March,https://img3.idealista.com/blur/WEB_LISTING/0/id.pro.es.image.master/6b/f1/c8/756409778.jpg,https://www.idealista.com/inmueble/88827926/
36,barrio El Clot,3,es,semidetachedHouse,chalet,Sant Martí,False,FR-450V-18,,False,False,,False,False,41.4122381,2.1909982,Barcelona,El Clot,False,,40,sale,,,,450000.0,2571.0,88827880,chalet,Barcelona,5,False,175.0,good,"El Clot, Barcelona",Chalet pareado,https://img3.idealista.com/blur/WEB_LISTING/0/id.pro.es.image.master/5c/41/cd/756407654.jpg,https://www.idealista.com/inmueble/88827880/
37,barrio El Fort Pienc,1,es,,flat,Eixample,True,111375,4,False,False,True,True,False,41.3993133,2.1795009,Barcelona,El Fort Pienc,False,,40,sale,,,,329000.0,4329.0,88827922,flat,Barcelona,4,False,76.0,good,"El Fort Pienc, Barcelona",Piso,https://img3.idealista.com/blur/WEB_LISTING/0/id.pro.es.image.master/1c/15/8e/756408655.jpg,https://www.idealista.com/inmueble/88827922/
38,barrio Sants,3,es,,chalet,Sants-Montjuïc,False,111304,bj,False,False,,True,False,41.3789656,2.1346299,Barcelona,Sants,False,,41,sale,,,,1500000.0,3571.0,88827915,chalet,Barcelona,4,False,420.0,good,"Sants, Barcelona",Chalet,https://img3.idealista.com/blur/WEB_LISTING/0/id.pro.es.image.master/aa/65/f3/756408278.jpg,https://www.idealista.com/inmueble/88827915/
39,Calle d'Aragó,1,es,,flat,Eixample,True,SF1,2,False,False,True,True,True,41.4037874,2.1817656,Barcelona,La Sagrada Família,False,,22,sale,,,,259000.0,3700.0,88827848,flat,Barcelona,3,False,70.0,good,"La Sagrada Família, Barcelona",Piso en Calle d'Aragó,https://img3.idealista.com/blur/WEB_LISTING/0/id.pro.es.image.master/ae/7c/51/756406776.jpg,https://www.idealista.com/inmueble/88827848/
40,barrio El Gòtic,2,es,,flat,Ciutat Vella,True,vb1901004,1,False,False,True,True,True,41.379795,2.1764186,Barcelona,El Gòtic,False,,21,sale,,,,495000.0,4195.0,88827764,flat,Barcelona,2,False,118.0,good,"El Gòtic, Barcelona",Piso,https://img3.idealista.com/blur/WEB_LISTING/0/id.pro.es.image.master/11/bb/1f/756404975.jpg,https://www.idealista.com/inmueble/88827764/
41,"Calle de l'Agricultura, 130 -136",1,es,,flat,Sant Martí,True,100045,2,False,False,True,False,False,41.4132903,2.2076856,Barcelona,Provençals del Poblenou,False,,17,sale,,,,205000.0,3154.0,88827695,flat,Barcelona,1,True,65.0,good,"Provençals del Poblenou, Barcelona","Piso en Calle de l'Agricultura, 130 -136",https://img3.idealista.com/blur/WEB_LISTING/0/id.pro.es.image.master/b4/80/37/756402595.jpg,https://www.idealista.com/inmueble/88827695/
42,barrio El Baix Guinardó,1,es,penthouse,flat,Horta Guinardó,True,27146,5,False,False,True,False,True,41.4142961,2.1696516,Barcelona,El Baix Guinardó,False,,41,sale,True,True,,560000.0,6087.0,88099481,penthouse,Barcelona,4,False,92.0,good,"El Baix Guinardó, Barcelona",Ático,https://img3.idealista.com/blur/WEB_LISTING/0/id.pro.es.image.master/be/15/da/755098666.jpg,https://www.idealista.com/inmueble/88099481/
43,barrio El Putxet i el Farró,2,es,,flat,Sarrià-Sant Gervasi,True,BP1001,1,False,False,True,False,False,41.4092254,2.1446116,Barcelona,El Putxet i el Farró,False,,11,sale,,,,595000.0,5777.0,88827659,flat,Barcelona,3,False,103.0,good,"El Putxet i el Farró, Barcelona",Piso,https://img3.idealista.com/blur/WEB_LISTING/0/id.pro.es.image.master/c0/89/27/756773071.jpg,https://www.idealista.com/inmueble/88827659/
44,Calle del Tinent Floresta,1,es,,flat,Sants-Montjuïc,True,SL-1,6,False,False,True,True,True,41.373417,2.1310598,Barcelona,Sants,False,,18,sale,,,,205000.0,3417.0,88827648,flat,Barcelona,2,False,60.0,good,"Sants, Barcelona",Piso en Calle del Tinent Floresta,https://img3.idealista.com/blur/WEB_LISTING/0/id.pro.es.image.master/2d/a2/39/756401913.jpg,https://www.idealista.com/inmueble/88827648/
45,"rasos de peguera, 95",1,es,,flat,Nou Barris,True,2047,2,False,False,False,False,True,41.4597051,2.1735332,Barcelona,Ciutat Meridiana - Torre Baró - Vallbona,False,,20,sale,,,,115000.0,1742.0,88827524,flat,Barcelona,3,True,66.0,good,"Ciutat Meridiana - Torre Baró - Vallbona, Barcelona","Piso en rasos de peguera, 95",https://img3.idealista.com/blur/WEB_LISTING/0/id.pro.es.image.master/a6/d3/8f/756398819.jpg,https://www.idealista.com/inmueble/88827524/
46,Calle de la Nena Casas,3,es,,flat,Sarrià-Sant Gervasi,True,GVVNC66D,2,False,False,True,True,True,41.3952111,2.1293492,Barcelona,Les Tres Torres,False,,26,sale,True,True,,980000.0,6364.0,88827587,flat,Barcelona,3,False,154.0,good,"Les Tres Torres, Barcelona",Piso en Calle de la Nena Casas,https://img3.idealista.com/blur/WEB_LISTING/0/id.pro.es.image.master/28/21/b9/756399879.jpg,https://www.idealista.com/inmueble/88827587/
47,Calle de Lepant,2,es,,flat,Eixample,True,Z1-01b,1,False,False,True,True,False,41.4045374,2.1732514,Barcelona,La Sagrada Família,False,,43,sale,,,,585000.0,5087.0,88827454,flat,Barcelona,3,False,115.0,good,"La Sagrada Família, Barcelona",Piso en Calle de Lepant,https://img3.idealista.com/blur/WEB_LISTING/0/id.pro.es.image.master/88/3a/e0/756395671.jpg,https://www.idealista.com/inmueble/88827454/
48,Calle de Ramon Turró,2,es,,flat,Sant Martí,True,3477-00812,3,False,False,True,True,False,41.3899984,2.1908754,Barcelona,La Vila Olímpica del Poblenou,False,,14,sale,,,,475000.0,5220.0,87339530,flat,Barcelona,3,False,91.0,good,"La Vila Olímpica del Poblenou, Barcelona",Piso en Calle de Ramon Turró,https://img3.idealista.com/blur/WEB_LISTING/0/id.pro.es.image.master/4e/4e/13/718206908.jpg,https://www.idealista.com/inmueble/87339530/
49,Calle del Camp Arriassa,1,es,,flat,Sant Martí,True,3477-00941,6,False,False,True,True,False,41.4250672,2.1996868,Barcelona,La Verneda i la Pau,False,,14,sale,,,,225000.0,3409.0,88827439,flat,Barcelona,2,False,66.0,good,"La Verneda i la Pau, Barcelona",Piso en Calle del Camp Arriassa,https://img3.idealista.com/blur/WEB_LISTING/0/id.pro.es.image.master/dd/b0/98/756394947.jpg,https://www.idealista.com/inmueble/88827439/
0,Calle del Treball,1,es,,flat,Sant Martí,True,ref.02014,1,False,False,True,False,False,41.4188598,2.2014493,Barcelona,Sant Martí de Provençals,False,,10,sale,,,,220000.0,2316.0,88827348,flat,Barcelona,3,False,95.0,renew,"Sant Martí de Provençals, Barcelona",Piso en Calle del Treball,https://img3.idealista.com/blur/WEB_LISTING/0/id.pro.es.image.master/95/b4/cc/756393529.jpg,https://www.idealista.com/inmueble/88827348/
1,Calle de Huelva,1,es,,flat,Sant Martí,True,3477-00940,7,False,False,True,True,False,41.4175587,2.1948451,Barcelona,Sant Martí de Provençals,False,,21,sale,,,,235000.0,2304.0,88827405,flat,Barcelona,3,False,102.0,good,"Sant Martí de Provençals, Barcelona",Piso en Calle de Huelva,https://img3.idealista.com/blur/WEB_LISTING/0/id.pro.es.image.master/77/2e/b3/756393274.jpg,https://www.idealista.com/inmueble/88827405/
2,Calle Balmes,2,es,,flat,Sarrià-Sant Gervasi,True,3477-00939,4,False,False,True,True,False,41.4046975,2.1447588,Barcelona,Sant Gervasi - Galvany,False,,20,sale,,,,850000.0,4645.0,88827289,flat,Barcelona,4,False,183.0,good,"Sant Gervasi - Galvany, Barcelona",Piso en Calle Balmes,https://img3.idealista.com/blur/WEB_LISTING/0/id.pro.es.image.master/4b/d8/58/756391068.jpg,https://www.idealista.com/inmueble/88827289/
3,barrio Pedralbes,2,es,,flat,Les Corts,True,INV0028,9,False,False,False,True,False,41.3921252,2.1260233,Barcelona,Pedralbes,False,,15,sale,,,,740000.0,5873.0,88419691,flat,Barcelona,3,False,126.0,renew,"Pedralbes, Barcelona",Piso,https://img3.idealista.com/blur/WEB_LISTING/0/id.pro.es.image.master/3a/d8/8c/746319481.jpg,https://www.idealista.com/inmueble/88419691/
4,Calle del Baró de la Barre,1,es,,flat,Gràcia,True,FM-I1186,bj,False,False,False,False,False,41.4159526,2.1399443,Barcelona,Vallcarca i els Penitents,False,,27,sale,,,,250000.0,3333.0,88827310,flat,Barcelona,4,False,75.0,good,"Vallcarca i els Penitents, Barcelona",Piso en Calle del Baró de la Barre,https://img3.idealista.com/blur/WEB_LISTING/0/id.pro.es.image.master/82/0f/71/756390466.jpg,https://www.idealista.com/inmueble/88827310/
5,Calle de França,1,es,,flat,Horta Guinardó,True,3477-00938,1,False,False,True,True,False,41.4150451,2.1626783,Barcelona,Can Baró,False,,19,sale,,,,299000.0,3477.0,88827193,flat,Barcelona,3,False,86.0,good,"Can Baró, Barcelona",Piso en Calle de França,https://img3.idealista.com/blur/WEB_LISTING/0/id.pro.es.image.master/a8/53/cb/756388374.jpg,https://www.idealista.com/inmueble/88827193/
6,Calle de Sardenya,1,es,,flat,Gràcia,True,83949,,False,False,False,False,False,41.4080808,2.1665155,Barcelona,El Camp d'En Grassot i Gràcia Nova,False,,20,sale,,,,249000.0,4150.0,86572354,flat,Barcelona,3,False,60.0,,"El Camp d'En Grassot i Gràcia Nova, Barcelona",Piso en Calle de Sardenya,https://img3.idealista.com/blur/WEB_LISTING/0/id.pro.es.image.master/0e/74/47/756385427.jpg,https://www.idealista.com/inmueble/86572354/
7,Calle de Varsòvia,1,es,,flat,Horta Guinardó,True,3477-00937,2,False,False,True,True,False,41.4217982,2.1772004,Barcelona,El Guinardó,False,,25,sale,,,,219000.0,3369.0,88827051,flat,Barcelona,3,False,65.0,renew,"El Guinardó, Barcelona",Piso en Calle de Varsòvia,https://img3.idealista.com/blur/WEB_LISTING/0/id.pro.es.image.master/c9/d8/62/756384836.jpg,https://www.idealista.com/inmueble/88827051/
8,barrio Les Tres Torres,4,es,,flat,Sarrià-Sant Gervasi,True,3677,2,False,False,True,False,False,41.3987715,2.1284165,Barcelona,Les Tres Torres,False,,21,sale,True,True,,1300000.0,5394.0,82542108,flat,Barcelona,4,False,241.0,good,"Les Tres Torres, Barcelona",Piso,https://img3.idealista.com/blur/WEB_LISTING/0/id.pro.es.image.master/47/b1/72/599851092.jpg,https://www.idealista.com/inmueble/82542108/
9,Calle de Florència,2,es,,flat,Horta Guinardó,True,3477-00935,1,False,False,True,True,False,41.4188415,2.1720811,Barcelona,El Guinardó,False,,21,sale,,,,268000.0,3622.0,88826874,flat,Barcelona,3,False,74.0,good,"El Guinardó, Barcelona",Piso en Calle de Florència,https://img3.idealista.com/blur/WEB_LISTING/0/id.pro.es.image.master/20/83/c6/756380327.jpg,https://www.idealista.com/inmueble/88826874/
10,barrio La Verneda i la Pau,1,es,,flat,Sant Martí,True,PR2-LUSH,6,False,False,True,False,False,41.4200962,2.2094271,Barcelona,La Verneda i la Pau,False,,12,sale,,,,215000.0,2688.0,88826536,flat,Barcelona,3,False,80.0,good,"La Verneda i la Pau, Barcelona",Piso,https://img3.idealista.com/blur/WEB_LISTING/0/id.pro.es.image.master/3d/b0/df/756372479.jpg,https://www.idealista.com/inmueble/88826536/
11,"Calle del Cardenal Tedeschini, 8",1,es,,flat,Sant Andreu,False,ES01255,2,False,False,True,True,False,41.4257,2.18533,Barcelona,La Sagrera,False,,21,sale,,,,210000.0,3962.0,88696094,flat,Barcelona,2,True,53.0,,"La Sagrera, Barcelona","Piso en Calle del Cardenal Tedeschini, 8",https://img3.idealista.com/blur/WEB_LISTING/0/id.pro.es.image.master/8d/32/df/754967588.jpg,https://www.idealista.com/inmueble/88696094/
12,barrio Les Corts,2,es,terracedHouse,chalet,Les Corts,False,B08MR206A,st,False,False,,True,True,41.3856328,2.1263725,Barcelona,Les Corts,False,,26,sale,,,,695000.0,3341.0,88826543,chalet,Barcelona,5,False,208.0,good,"Les Corts, Barcelona",Chalet adosado,https://img3.idealista.com/blur/WEB_LISTING/0/id.pro.es.image.master/8b/82/10/756374133.jpg,https://www.idealista.com/inmueble/88826543/
13,JOSEP PLA,1,es,,flat,Sant Martí,True,TANDEM-JOSEP-PLA,4,False,False,True,False,False,41.4153755,2.2065417,Barcelona,Provençals del Poblenou,False,,13,sale,,,,220000.0,2785.0,88826419,flat,Barcelona,4,False,79.0,good,"Provençals del Poblenou, Barcelona",Piso en JOSEP PLA,https://img3.idealista.com/blur/WEB_LISTING/0/id.pro.es.image.master/e1/3b/56/756368706.jpg,https://www.idealista.com/inmueble/88826419/
14,Calle Rocafort,2,es,,flat,Eixample,True,1215,7,False,False,True,False,True,41.3825387,2.1500594,Barcelona,La Nova Esquerra de l'Eixample,False,,22,sale,True,False,30000.0,371175.0,4582.0,88825901,flat,Barcelona,2,False,81.0,renew,"La Nova Esquerra de l'Eixample, Barcelona",Piso en Calle Rocafort,https://img3.idealista.com/blur/WEB_LISTING/0/id.pro.es.image.master/92/12/05/756355372.jpg,https://www.idealista.com/inmueble/88825901/
15,Calle de la Font Honrada,1,es,penthouse,flat,Sants-Montjuïc,True,V235FH28,4,False,False,False,True,True,41.3743682,2.1565491,Barcelona,El Poble Sec - Parc de Montjuïc,False,,21,sale,,,,230000.0,3710.0,88825952,penthouse,Barcelona,1,False,62.0,good,"El Poble Sec - Parc de Montjuïc, Barcelona",Ático en Calle de la Font Honrada,https://img3.idealista.com/blur/WEB_LISTING/0/id.pro.es.image.master/ec/23/23/756356343.jpg,https://www.idealista.com/inmueble/88825952/
16,barrio Vila de Gràcia,2,es,,flat,Gràcia,True,IAUrobi2C,1,False,False,True,False,False,41.406949,2.1544026,Barcelona,Vila de Gràcia,False,,23,sale,,,,368888.0,3967.0,88825961,flat,Barcelona,4,False,93.0,good,"Vila de Gràcia, Barcelona",Piso,https://img3.idealista.com/blur/WEB_LISTING/0/id.pro.es.image.master/22/14/64/756356237.jpg,https://www.idealista.com/inmueble/88825961/
17,Via Laietana,2,es,,flat,Ciutat Vella,True,13523,1,False,False,True,True,True,41.382571,2.178564,Barcelona,Sant Pere - Santa Caterina i la Ribera,False,,40,sale,,,,1075000.0,9188.0,88825887,flat,Barcelona,2,False,117.0,good,"Sant Pere - Santa Caterina i la Ribera, Barcelona",Piso en Via Laietana,https://img3.idealista.com/blur/WEB_LISTING/0/id.pro.es.image.master/e3/3e/ca/756354799.jpg,https://www.idealista.com/inmueble/88825887/
18,Calle de Balmes,1,es,,flat,Sarrià-Sant Gervasi,False,13520,1,False,False,True,False,True,41.4014395,2.1503353,Barcelona,Sant Gervasi - Galvany,False,,11,sale,,,,550000.0,5500.0,88825878,flat,Barcelona,3,False,100.0,renew,"Sant Gervasi - Galvany, Barcelona",Piso en Calle de Balmes,https://img3.idealista.com/blur/WEB_LISTING/0/id.pro.es.image.master/fd/a9/f8/756354466.jpg,https://www.idealista.com/inmueble/88825878/
19,Calle del Capità Arenas,1,es,,flat,Les Corts,False,13519,8,False,False,True,False,False,41.3930641,2.1241005,Barcelona,Pedralbes,False,,12,sale,,,,460000.0,6301.0,88825876,flat,Barcelona,3,False,73.0,renew,"Pedralbes, Barcelona",Piso en Calle del Capità Arenas,https://img3.idealista.com/blur/WEB_LISTING/0/id.pro.es.image.master/18/b9/6a/756354364.jpg,https://www.idealista.com/inmueble/88825876/
20,Calle d'Arenys,2,es,,flat,Horta Guinardó,True,FV004,1,False,False,True,True,False,41.4248205,2.1457304,Barcelona,La Teixonera,False,,24,sale,,,,208000.0,2633.0,88825608,flat,Barcelona,4,False,79.0,good,"La Teixonera, Barcelona",Piso en Calle d'Arenys,https://img3.idealista.com/blur/WEB_LISTING/0/id.pro.es.image.master/39/05/66/756349295.jpg,https://www.idealista.com/inmueble/88825608/
21,Calle de Lancaster,1,es,,flat,Ciutat Vella,True,,3,False,False,False,False,False,41.3773866,2.1728579,Barcelona,El Raval,False,,3,sale,,,,145000.0,2685.0,88825541,flat,Barcelona,1,False,54.0,renew,"El Raval, Barcelona",Piso en Calle de Lancaster,https://img3.idealista.com/blur/WEB_LISTING/0/id.pro.es.image.master/d5/d2/a0/756348478.jpg,https://www.idealista.com/inmueble/88825541/
22,Calle del Comte d'Urgell,1,es,,flat,Eixample,True,1150,6,False,False,True,False,True,41.3855543,2.1552421,Barcelona,La Nova Esquerra de l'Eixample,False,,21,sale,,,,460000.0,6301.0,88825026,flat,Barcelona,2,False,73.0,good,"La Nova Esquerra de l'Eixample, Barcelona",Piso en Calle del Comte d'Urgell,https://img3.idealista.com/blur/WEB_LISTING/0/id.pro.es.image.master/58/ec/95/756337867.jpg,https://www.idealista.com/inmueble/88825026/
23,Calle d'Aribau s/n,1,es,,flat,Eixample,True,,1,False,False,True,False,False,41.392589,2.1537939,Barcelona,L'Antiga Esquerra de l'Eixample,False,,10,sale,,,,775000.0,5699.0,88825204,flat,Barcelona,5,True,136.0,renew,"L'Antiga Esquerra de l'Eixample, Barcelona",Piso en Calle d'Aribau s/n,https://img3.idealista.com/blur/WEB_LISTING/0/id.pro.es.image.master/33/65/82/756341744.jpg,https://www.idealista.com/inmueble/88825204/
24,Calle del Doctor Letamendi,1,es,,flat,Horta Guinardó,True,OFJA053,2,False,False,False,True,False,41.4337688,2.1589523,Barcelona,Horta,False,,22,sale,,,,210000.0,2800.0,88825185,flat,Barcelona,4,False,75.0,renew,"Horta, Barcelona",Piso en Calle del Doctor Letamendi,https://img3.idealista.com/blur/WEB_LISTING/0/id.pro.es.image.master/d1/9e/33/756341312.jpg,https://www.idealista.com/inmueble/88825185/
25,Calle de Vistalegre,1,es,,flat,Ciutat Vella,False,,2,False,False,False,False,False,41.3789988,2.1658552,Barcelona,El Raval,False,,8,sale,,,,142000.0,3550.0,88823251,flat,Barcelona,1,False,40.0,good,"El Raval, Barcelona",Piso en Calle de Vistalegre,https://img3.idealista.com/blur/WEB_LISTING/0/id.pro.es.image.master/ba/0c/b1/756334425.jpg,https://www.idealista.com/inmueble/88823251/
26,Calle de Lepant,2,es,,flat,Eixample,True,Z1-01,1,False,False,True,True,False,41.3993186,2.180195,Barcelona,El Fort Pienc,False,,43,sale,,,,585000.0,5087.0,88824440,flat,Barcelona,3,False,115.0,good,"El Fort Pienc, Barcelona",Piso en Calle de Lepant,https://img3.idealista.com/blur/WEB_LISTING/0/id.pro.es.image.master/1f/c0/74/756325771.jpg,https://www.idealista.com/inmueble/88824440/
27,Calle de Santa Albina,1,es,,flat,Horta Guinardó,True,santa albina,st,False,False,False,False,False,41.4211155,2.148306,Barcelona,La Teixonera,False,,22,sale,,,,119000.0,2333.0,88825010,flat,Barcelona,2,False,51.0,good,"La Teixonera, Barcelona",Piso en Calle de Santa Albina,https://img3.idealista.com/blur/WEB_LISTING/0/id.pro.es.image.master/a6/98/a7/756815727.jpg,https://www.idealista.com/inmueble/88825010/
28,Calle Doctor Trueta,2,es,,flat,Sant Martí,True,08AR205A,2,False,False,True,False,True,41.3893048,2.1919987,Barcelona,La Vila Olímpica del Poblenou,False,,37,sale,,,,529000.0,4008.0,88824193,flat,Barcelona,3,False,132.0,good,"La Vila Olímpica del Poblenou, Barcelona",Piso en Calle Doctor Trueta,https://img3.idealista.com/blur/WEB_LISTING/0/id.pro.es.image.master/0f/40/c1/756323775.jpg,https://www.idealista.com/inmueble/88824193/
29,Calle de París,1,es,,flat,Eixample,True,1028,6,False,False,True,False,True,41.388651,2.146851,Barcelona,La Nova Esquerra de l'Eixample,False,,24,sale,,,,295000.0,4917.0,88824659,flat,Barcelona,2,False,60.0,renew,"La Nova Esquerra de l'Eixample, Barcelona",Piso en Calle de París,https://img3.idealista.com/blur/WEB_LISTING/0/id.pro.es.image.master/ae/aa/85/756331281.jpg,https://www.idealista.com/inmueble/88824659/
30,Calle de la Mineria,1,es,,flat,Sants-Montjuïc,True,1687,bj,False,False,True,True,True,41.3664383,2.1420518,Barcelona,La Font de la Guatlla,False,,21,sale,,,,300000.0,3226.0,88824780,flat,Barcelona,3,False,93.0,good,"La Font de la Guatlla, Barcelona",Piso en Calle de la Mineria,https://img3.idealista.com/blur/WEB_LISTING/0/id.pro.es.image.master/8f/db/2f/756333863.jpg,https://www.idealista.com/inmueble/88824780/
31,barrio Can Peguera - El Turó de la Peira,1,es,penthouse,flat,Nou Barris,True,38525,5,False,False,True,False,False,41.433779,2.1700445,Barcelona,Can Peguera - El Turó de la Peira,False,,17,sale,,,,260000.0,3611.0,88824648,penthouse,Barcelona,3,False,72.0,good,"Can Peguera - El Turó de la Peira, Barcelona",Ático,https://img3.idealista.com/blur/WEB_LISTING/0/id.pro.es.image.master/ea/4d/81/756329427.jpg,https://www.idealista.com/inmueble/88824648/
32,barrio El Raval,2,es,,flat,Ciutat Vella,True,RAV190-11,1,False,False,False,False,False,41.3812116,2.1687265,Barcelona,El Raval,False,,17,sale,,,,430000.0,5244.0,88814015,flat,Barcelona,2,False,82.0,good,"El Raval, Barcelona",Piso,https://img3.idealista.com/blur/WEB_LISTING/0/id.pro.es.image.master/66/73/aa/756072701.jpg,https://www.idealista.com/inmueble/88814015/
33,Calle de Buenaventura Muñoz,2,es,,flat,Sant Martí,True,EBF-1618,4,False,False,True,True,False,41.3942509,2.1846854,Barcelona,El Parc i la Llacuna del Poblenou,False,,26,sale,,,,360000.0,3186.0,88824253,flat,Barcelona,3,False,113.0,renew,"El Parc i la Llacuna del Poblenou, Barcelona",Piso en Calle de Buenaventura Muñoz,https://img3.idealista.com/blur/WEB_LISTING/0/id.pro.es.image.master/5f/67/1b/756322184.jpg,https://www.idealista.com/inmueble/88824253/
34,"POETA CABANYES, 31",1,es,studio,flat,Sants-Montjuïc,True,003.9203,st,False,False,False,False,True,41.3737944,2.1655352,Barcelona,El Poble Sec - Parc de Montjuïc,False,,17,sale,,,,109000.0,2180.0,88824498,studio,Barcelona,0,True,50.0,good,"El Poble Sec - Parc de Montjuïc, Barcelona","Estudio en POETA CABANYES, 31",https://img3.idealista.com/blur/WEB_LISTING/0/id.pro.es.image.master/bd/fb/68/756326422.jpg,https://www.idealista.com/inmueble/88824498/
35,Miracle,1,es,,flat,Sants-Montjuïc,False,08433-0001,bj,False,False,False,False,False,41.3775615,2.1343937,Barcelona,Sants,False,,7,sale,,,,231400.0,2247.0,88824448,flat,Barcelona,2,False,103.0,renew,"Sants, Barcelona",Piso en Miracle,https://img3.idealista.com/blur/WEB_LISTING/0/id.pro.es.image.master/b0/fa/55/756325079.jpg,https://www.idealista.com/inmueble/88824448/
36,Calle de Josep Serrano,1,es,,flat,Horta Guinardó,True,JOSEP SERRANO,1,False,False,True,False,False,41.4178278,2.1614617,Barcelona,Can Baró,False,,22,sale,,,,210000.0,3000.0,88824206,flat,Barcelona,3,False,70.0,good,"Can Baró, Barcelona",Piso en Calle de Josep Serrano,https://img3.idealista.com/blur/WEB_LISTING/0/id.pro.es.image.master/b2/5a/2b/756320360.jpg,https://www.idealista.com/inmueble/88824206/
37,Gran Via de les Corts Catalanes,2,es,,flat,Eixample,True,VB2002063,2,False,False,True,True,True,41.3867734,2.1685985,Barcelona,La Dreta de l'Eixample,False,,32,sale,,,,1095000.0,3869.0,88824126,flat,Barcelona,5,False,283.0,renew,"La Dreta de l'Eixample, Barcelona",Piso en Gran Via de les Corts Catalanes,https://img3.idealista.com/blur/WEB_LISTING/0/id.pro.es.image.master/ae/9b/c7/756318855.jpg,https://www.idealista.com/inmueble/88824126/
38,Calle de Puigcerdà,1,es,,flat,Sant Martí,True,FV044,en,False,False,True,True,False,41.4226223,2.2031176,Barcelona,La Verneda i la Pau,False,,25,sale,,,,220000.0,2245.0,88824138,flat,Barcelona,2,False,98.0,good,"La Verneda i la Pau, Barcelona",Piso en Calle de Puigcerdà,https://img3.idealista.com/blur/WEB_LISTING/0/id.pro.es.image.master/aa/17/f3/756319344.jpg,https://www.idealista.com/inmueble/88824138/
39,Calle de Ca l'Alegre de Dalt,2,es,,flat,Gràcia,True,CLIC-DMA631,4,False,False,True,False,False,41.4119439,2.1603322,Barcelona,El Camp d'En Grassot i Gràcia Nova,False,,21,sale,,,,365000.0,5000.0,88824055,flat,Barcelona,3,False,73.0,good,"El Camp d'En Grassot i Gràcia Nova, Barcelona",Piso en Calle de Ca l'Alegre de Dalt,https://img3.idealista.com/blur/WEB_LISTING/0/id.pro.es.image.master/1f/81/18/756317658.jpg,https://www.idealista.com/inmueble/88824055/
40,Calle Industria,2,es,penthouse,flat,Eixample,True,1695,8,False,False,True,True,True,41.4068937,2.1715414,Barcelona,La Sagrada Família,False,,62,sale,True,False,18000.0,570000.0,4130.0,88823844,penthouse,Barcelona,3,False,138.0,renew,"La Sagrada Família, Barcelona",Ático en Calle Industria,https://img3.idealista.com/blur/WEB_LISTING/0/id.pro.es.image.master/b3/d4/7e/756776052.jpg,https://www.idealista.com/inmueble/88823844/
41,barrio La Dreta de l'Eixample,2,es,,flat,Eixample,True,BCN06339,4,False,False,True,False,False,41.3912015,2.1738865,Barcelona,La Dreta de l'Eixample,False,,23,sale,,,,645000.0,4778.0,88823872,flat,Barcelona,3,False,135.0,good,"La Dreta de l'Eixample, Barcelona",Piso,https://img3.idealista.com/blur/WEB_LISTING/0/id.pro.es.image.master/24/76/13/756314112.jpg,https://www.idealista.com/inmueble/88823872/
42,Calle de Lepant,2,es,,flat,Eixample,True,RMX - FORT PIENC 3V,3,False,False,False,False,False,41.3981021,2.1853961,Barcelona,El Fort Pienc,False,,21,sale,,,,310000.0,4429.0,88823744,flat,Barcelona,2,False,70.0,good,"El Fort Pienc, Barcelona",Piso en Calle de Lepant,https://img3.idealista.com/blur/WEB_LISTING/0/id.pro.es.image.master/5d/a9/d8/756311646.jpg,https://www.idealista.com/inmueble/88823744/
43,Encarnacio,1,es,,flat,Horta Guinardó,True,VENC1,bj,False,False,True,False,False,41.4113761,2.1649975,Barcelona,El Baix Guinardó,False,,25,sale,,,,192000.0,2667.0,88823365,flat,Barcelona,2,False,72.0,good,"El Baix Guinardó, Barcelona",Piso en Encarnacio,https://img3.idealista.com/blur/WEB_LISTING/0/id.pro.es.image.master/6b/38/be/756310522.jpg,https://www.idealista.com/inmueble/88823365/
44,Calle del Pintor Fortuny,2,es,,flat,Ciutat Vella,True,,1,False,False,True,False,False,41.3810189,2.1679406,Barcelona,El Raval,False,,22,sale,,,,379000.0,2787.0,88823492,flat,Barcelona,4,False,136.0,good,"El Raval, Barcelona",Piso en Calle del Pintor Fortuny,https://img3.idealista.com/blur/WEB_LISTING/0/id.pro.es.image.master/2c/1d/fc/756310353.jpg,https://www.idealista.com/inmueble/88823492/
45,"Riera blanca, 69",1,es,,flat,Sants-Montjuïc,True,-e1-,1,False,False,False,True,True,41.3730727,2.1253416,Barcelona,Sants - Badal,False,,31,sale,,,,169000.0,2600.0,88823537,flat,Barcelona,3,True,65.0,good,"Sants - Badal, Barcelona","Piso en Riera blanca, 69",https://img3.idealista.com/blur/WEB_LISTING/0/id.pro.es.image.master/41/c1/89/756306671.jpg,https://www.idealista.com/inmueble/88823537/
46,Paseo de Manuel Girona,2,es,,flat,Les Corts,False,054551,4,False,False,True,False,False,41.390053,2.1233853,Barcelona,Pedralbes,False,,16,sale,,,,967500.0,6085.0,88823574,flat,Barcelona,6,False,159.0,renew,"Pedralbes, Barcelona",Piso en Paseo de Manuel Girona,https://img3.idealista.com/blur/WEB_LISTING/0/id.pro.es.image.master/47/fb/e9/756307702.jpg,https://www.idealista.com/inmueble/88823574/
47,Passatge del Dormitori Sant Francesc,2,es,,flat,Ciutat Vella,True,,1,False,False,False,True,False,41.3767476,2.1799622,Barcelona,El Gòtic,False,,39,sale,,,,400000.0,4000.0,88823426,flat,Barcelona,2,False,100.0,good,"El Gòtic, Barcelona",Piso en Passatge del Dormitori Sant Francesc,https://img3.idealista.com/blur/WEB_LISTING/0/id.pro.es.image.master/1d/bd/17/756304637.jpg,https://www.idealista.com/inmueble/88823426/
48,Rambla del Poblenou,3,es,,flat,Sant Martí,True,1657-FA,2,False,False,False,True,True,41.4020385,2.1964314,Barcelona,El Poblenou,False,,1,sale,,,,440000.0,5500.0,88823509,flat,Barcelona,2,False,80.0,good,"El Poblenou, Barcelona",Piso en Rambla del Poblenou,https://img3.idealista.com/blur/WEB_LISTING/0/id.pro.es.image.master/08/bb/a6/759646045.jpg,https://www.idealista.com/inmueble/88823509/
49,Calle de l'Almirall Pròixida,1,es,,flat,Sant Andreu,True,DP-07,2,False,False,True,False,True,41.4419801,2.1892769,Barcelona,Sant Andreu,False,,1,sale,,,,225000.0,3082.0,88823385,flat,Barcelona,4,False,73.0,good,"Sant Andreu, Barcelona",Piso en Calle de l'Almirall Pròixida,https://img3.idealista.com/blur/WEB_LISTING/0/id.pro.es.image.master/af/cc/d7/756303325.jpg,https://www.idealista.com/inmueble/88823385/
0,Riera BLANCA,1,es,,flat,Sants-Montjuïc,True,PB-RB169K,1,False,False,False,False,True,41.3749727,2.1239416,Barcelona,Sants - Badal,False,,31,sale,,,,169000.0,2600.0,88823025,flat,Barcelona,3,False,65.0,good,"Sants - Badal, Barcelona",Piso en Riera BLANCA,https://img3.idealista.com/blur/WEB_LISTING/0/id.pro.es.image.master/a3/bf/a8/756295230.jpg,https://www.idealista.com/inmueble/88823025/
1,Calle de Lepant,2,es,,flat,Eixample,True,ELENA380,4,False,False,True,False,True,41.4074713,2.1728018,Barcelona,La Sagrada Família,False,,29,sale,,,,380000.0,3800.0,88821358,flat,Barcelona,3,False,100.0,good,"La Sagrada Família, Barcelona",Piso en Calle de Lepant,https://img3.idealista.com/blur/WEB_LISTING/0/id.pro.es.image.master/dc/25/70/756258577.jpg,https://www.idealista.com/inmueble/88821358/
2,Calle del Tenor Viñas,3,es,,flat,Sarrià-Sant Gervasi,True,DV100055P,5,False,False,True,False,True,41.3945655,2.1442006,Barcelona,Sant Gervasi - Galvany,False,,44,sale,,,,1240000.0,6966.0,88488356,flat,Barcelona,4,False,178.0,good,"Sant Gervasi - Galvany, Barcelona",Piso en Calle del Tenor Viñas,https://img3.idealista.com/blur/WEB_LISTING/0/id.pro.es.image.master/97/18/6f/756262036.jpg,https://www.idealista.com/inmueble/88488356/
3,Calle de Londres,2,es,,flat,Eixample,True,9090484,2,False,False,True,True,True,41.3934606,2.1504767,Barcelona,L'Antiga Esquerra de l'Eixample,False,,11,sale,,,,650000.0,4815.0,88822604,flat,Barcelona,4,False,135.0,good,"L'Antiga Esquerra de l'Eixample, Barcelona",Piso en Calle de Londres,https://img3.idealista.com/blur/WEB_LISTING/0/id.pro.es.image.master/49/01/02/756287199.jpg,https://www.idealista.com/inmueble/88822604/
4,Agustina Zaragoza,2,es,,flat,Les Corts,True,Agus5,5,False,False,True,False,True,41.3905521,2.1331035,Barcelona,Les Corts,False,,23,sale,True,True,,750000.0,4967.0,88822551,flat,Barcelona,3,False,151.0,good,"Les Corts, Barcelona",Piso en Agustina Zaragoza,https://img3.idealista.com/blur/WEB_LISTING/0/id.pro.es.image.master/49/e9/59/756285047.jpg,https://www.idealista.com/inmueble/88822551/
5,Calle de Mallorca,2,es,,flat,Sant Martí,True,Mallorca310mil,1,False,False,True,False,False,41.4116578,2.1845683,Barcelona,El Camp de l'Arpa del Clot,False,,21,sale,,,,310000.0,3523.0,88822550,flat,Barcelona,3,False,88.0,good,"El Camp de l'Arpa del Clot, Barcelona",Piso en Calle de Mallorca,https://img3.idealista.com/blur/WEB_LISTING/0/id.pro.es.image.master/36/6e/d4/758112885.jpg,https://www.idealista.com/inmueble/88822550/
6,Calle del Cadí,1,es,,flat,Nou Barris,True,1682,1,False,False,True,True,True,41.4336821,2.1684153,Barcelona,Can Peguera - El Turó de la Peira,False,,13,sale,,,,149000.0,2483.0,88822508,flat,Barcelona,1,False,60.0,renew,"Can Peguera - El Turó de la Peira, Barcelona",Piso en Calle del Cadí,https://img3.idealista.com/blur/WEB_LISTING/0/id.pro.es.image.master/86/64/ba/756283937.jpg,https://www.idealista.com/inmueble/88822508/
7,giné i partagas,1,es,,flat,Ciutat Vella,True,,3,False,False,False,False,False,41.3822445,2.1891726,Barcelona,La Barceloneta,False,,9,sale,,,,135000.0,3971.0,88822274,flat,Barcelona,1,False,34.0,renew,"La Barceloneta, Barcelona",Piso en giné i partagas,https://img3.idealista.com/blur/WEB_LISTING/0/id.pro.es.image.master/a0/ed/84/756405330.jpg,https://www.idealista.com/inmueble/88822274/
8,Calle de Freixa,4,es,,flat,Sarrià-Sant Gervasi,True,,1,False,False,True,False,False,41.3979958,2.1408128,Barcelona,Sant Gervasi - Galvany,False,,2,sale,,,,1750000.0,7.0,88822294,flat,Barcelona,6,False,251000.0,good,"Sant Gervasi - Galvany, Barcelona",Piso en Calle de Freixa,https://img3.idealista.com/blur/WEB_LISTING/0/id.pro.es.image.master/48/db/31/757662278.jpg,https://www.idealista.com/inmueble/88822294/
9,"Ronda de Sant Pere, 28",3,es,,flat,Eixample,True,Rda. Sant Pere/Urquinaona,4,False,False,True,True,False,41.3894097,2.1744039,Barcelona,La Dreta de l'Eixample,False,,65,sale,True,True,,690000.0,4157.0,88130971,flat,Barcelona,5,True,166.0,good,"La Dreta de l'Eixample, Barcelona","Piso en Ronda de Sant Pere, 28",https://img3.idealista.com/blur/WEB_LISTING/0/id.pro.es.image.master/2a/e3/90/739385281.jpg,https://www.idealista.com/inmueble/88130971/
10,Valencia,1,es,,flat,Eixample,True,,4,True,False,True,True,False,41.379182,2.1486135,Barcelona,La Nova Esquerra de l'Eixample,False,,20,sale,,,,350000.0,5147.0,88822062,flat,Barcelona,2,False,68.0,good,"La Nova Esquerra de l'Eixample, Barcelona",Piso en Valencia,https://img3.idealista.com/blur/WEB_LISTING/0/id.pro.es.image.master/37/93/17/756274502.jpg,https://www.idealista.com/inmueble/88822062/
11,barrio La Marina del Port,1,es,,flat,Sants-Montjuïc,True,PBJREB,3,False,False,True,False,False,41.3592725,2.1394873,Barcelona,La Marina del Port,False,,15,sale,,,,215000.0,2590.0,88821791,flat,Barcelona,3,False,83.0,good,"La Marina del Port, Barcelona",Piso,https://img3.idealista.com/blur/WEB_LISTING/0/id.pro.es.image.master/1f/a4/be/756268275.jpg,https://www.idealista.com/inmueble/88821791/
12,Avenida de les corts catalanes,1,es,,flat,Sant Martí,True,,7,False,False,True,False,True,41.4228453,2.2130733,Barcelona,El Besòs,False,,17,sale,,,,155000.0,2500.0,88821621,flat,Barcelona,3,False,62.0,good,"El Besòs, Barcelona",Piso en Avenida de les corts catalanes,https://img3.idealista.com/blur/WEB_LISTING/0/id.pro.es.image.master/ba/b4/7d/756264950.jpg,https://www.idealista.com/inmueble/88821621/
13,Calle d'Aribau,1,es,,flat,Eixample,True,BV180D,en,False,False,False,True,True,41.3923109,2.15731,Barcelona,L'Antiga Esquerra de l'Eixample,False,,15,sale,,,,445000.0,5563.0,88821422,flat,Barcelona,2,False,80.0,good,"L'Antiga Esquerra de l'Eixample, Barcelona",Piso en Calle d'Aribau,https://img3.idealista.com/blur/WEB_LISTING/0/id.pro.es.image.master/31/3d/45/756261227.jpg,https://www.idealista.com/inmueble/88821422/
14,Calle de Briquets,1,es,,flat,Nou Barris,True,Briquets 2,1,False,False,False,False,False,41.449748,2.1768413,Barcelona,Les Roquetes - Canyelles,False,,21,sale,,,,145000.0,1883.0,88821298,flat,Barcelona,3,False,77.0,good,"Les Roquetes - Canyelles, Barcelona",Piso en Calle de Briquets,https://img3.idealista.com/blur/WEB_LISTING/0/id.pro.es.image.master/6a/18/31/756257356.jpg,https://www.idealista.com/inmueble/88821298/
15,Calle de Provença,2,es,,flat,Eixample,False,142CAPI_inmo_68208_,2,False,False,True,True,False,41.3855227,2.1491247,Barcelona,La Nova Esquerra de l'Eixample,False,,21,sale,,,,385000.0,4639.0,88821177,flat,Barcelona,2,False,83.0,good,"La Nova Esquerra de l'Eixample, Barcelona",Piso en Calle de Provença,https://img3.idealista.com/blur/WEB_LISTING/0/id.pro.es.image.master/f6/1c/c0/756254559.jpg,https://www.idealista.com/inmueble/88821177/
16,Calle de la Dàlia,1,es,,chalet,Sants-Montjuïc,False,142CAPI_inmo_01948_,bj,False,False,,False,False,41.3689611,2.1473664,Barcelona,La Font de la Guatlla,False,,18,sale,,,,995000.0,4198.0,88821174,chalet,Barcelona,5,False,237.0,good,"La Font de la Guatlla, Barcelona",Chalet en Calle de la Dàlia,https://img3.idealista.com/blur/WEB_LISTING/0/id.pro.es.image.master/06/13/ab/756254461.jpg,https://www.idealista.com/inmueble/88821174/
17,Calle de València,2,es,,flat,Sant Martí,False,142CAPI_inmo_00005_,bj,False,False,True,False,False,41.4085888,2.1844879,Barcelona,El Camp de l'Arpa del Clot,False,,27,sale,,,,475000.0,5523.0,87342949,flat,Barcelona,3,False,86.0,good,"El Camp de l'Arpa del Clot, Barcelona",Piso en Calle de València,https://img3.idealista.com/blur/WEB_LISTING/0/id.pro.es.image.master/df/8c/c2/718311362.jpg,https://www.idealista.com/inmueble/87342949/
18,"Calle de l'Abat Odó, 22",1,es,,flat,Sant Andreu,True,ABAD ODO,2,False,False,True,False,False,41.4323822,2.188111,Barcelona,Sant Andreu,False,,20,sale,,,,240000.0,3636.0,85913714,flat,Barcelona,3,True,66.0,renew,"Sant Andreu, Barcelona","Piso en Calle de l'Abat Odó, 22",https://img3.idealista.com/blur/WEB_LISTING/0/id.pro.es.image.master/35/d4/e5/678714216.jpg,https://www.idealista.com/inmueble/85913714/
19,Ronda del General Mitre,4,es,,flat,Sarrià-Sant Gervasi,True,cines sarrià,4,False,False,True,False,False,41.394717,2.1313819,Barcelona,Les Tres Torres,False,,25,sale,True,True,,1250000.0,5682.0,88820891,flat,Barcelona,5,False,220.0,good,"Les Tres Torres, Barcelona",Piso en Ronda del General Mitre,https://img3.idealista.com/blur/WEB_LISTING/0/id.pro.es.image.master/59/36/ef/756250237.jpg,https://www.idealista.com/inmueble/88820891/
20,barrio El Baix Guinardó,2,es,,flat,Horta Guinardó,False,W-02EAFK,3,False,False,True,True,False,41.4078408,2.1646277,Barcelona,El Baix Guinardó,False,,29,sale,True,True,,470000.0,4017.0,88820975,flat,Barcelona,4,False,117.0,good,"El Baix Guinardó, Barcelona",Piso,https://img3.idealista.com/blur/WEB_LISTING/0/id.pro.es.image.master/99/06/03/756250418.jpg,https://www.idealista.com/inmueble/88820975/
21,Calle de Sepúlveda,2,es,,flat,Eixample,False,S3321,3,False,False,True,False,True,41.3851631,2.1618339,Barcelona,Sant Antoni,False,,18,sale,,,,460000.0,4694.0,88820953,flat,Barcelona,2,False,98.0,good,"Sant Antoni, Barcelona",Piso en Calle de Sepúlveda,https://img3.idealista.com/blur/WEB_LISTING/0/id.pro.es.image.master/1a/c1/09/756249946.jpg,https://www.idealista.com/inmueble/88820953/
22,Calle de Cartagena,1,es,,flat,Eixample,True,AJ119,3,False,False,True,False,True,41.4080194,2.1759523,Barcelona,La Sagrada Família,False,,26,sale,,,,320000.0,5161.0,88820707,flat,Barcelona,2,False,62.0,good,"La Sagrada Família, Barcelona",Piso en Calle de Cartagena,https://img3.idealista.com/blur/WEB_LISTING/0/id.pro.es.image.master/97/15/e4/756243138.jpg,https://www.idealista.com/inmueble/88820707/
23,"Calle del Miracle, 9 -1",1,es,,flat,Sants-Montjuïc,False,A0-08433-0001,,False,False,False,False,False,41.3767109,2.1329954,Barcelona,Sants,False,,6,sale,,,,231400.0,2247.0,88820379,flat,Barcelona,2,True,103.0,,"Sants, Barcelona","Piso en Calle del Miracle, 9 -1",https://img3.idealista.com/blur/WEB_LISTING/0/id.pro.es.image.master/4a/ef/bc/756232716.jpg,https://www.idealista.com/inmueble/88820379/
24,"Calle de Lepant, 438 -440",1,es,,flat,Horta Guinardó,False,SRB_SOLVIA_89833,9,False,False,True,False,False,41.4117522,2.1670716,Barcelona,El Baix Guinardó,False,,8,sale,,,,304000.0,3416.0,82910913,flat,Barcelona,3,True,89.0,,"El Baix Guinardó, Barcelona","Piso en Calle de Lepant, 438 -440",https://img3.idealista.com/blur/WEB_LISTING/0/id.pro.es.image.master/f9/c8/17/756232107.jpg,https://www.idealista.com/inmueble/82910913/
25,barrio El Gòtic,2,es,,flat,Ciutat Vella,False,BCN22760,,False,False,True,True,False,41.3878725,2.1708457,Barcelona,El Gòtic,False,,23,sale,,,,780000.0,4699.0,88820232,flat,Barcelona,6,False,166.0,renew,"El Gòtic, Barcelona",Piso,https://img3.idealista.com/blur/WEB_LISTING/0/id.pro.es.image.master/2e/8d/b3/756228784.jpg,https://www.idealista.com/inmueble/88820232/
26,barrio El Poble Sec - Parc de Montjuïc,2,es,,flat,Sants-Montjuïc,False,BCN16670,,False,False,True,True,False,41.3740408,2.1621185,Barcelona,El Poble Sec - Parc de Montjuïc,False,,15,sale,,,,890000.0,5855.0,85723325,flat,Barcelona,2,False,152.0,good,"El Poble Sec - Parc de Montjuïc, Barcelona",Piso,https://img3.idealista.com/blur/WEB_LISTING/0/id.pro.es.image.master/d1/37/04/673620261.jpg,https://www.idealista.com/inmueble/85723325/
27,barrio Sant Gervasi - Galvany,3,es,,flat,Sarrià-Sant Gervasi,True,BCN16632,,False,False,True,True,False,41.3914316,2.140786,Barcelona,Sant Gervasi - Galvany,False,,24,sale,True,True,,1750000.0,8178.0,88820231,flat,Barcelona,4,False,214.0,good,"Sant Gervasi - Galvany, Barcelona",Piso,https://img3.idealista.com/blur/WEB_LISTING/0/id.pro.es.image.master/c3/1e/22/756228761.jpg,https://www.idealista.com/inmueble/88820231/
28,barrio Sant Antoni,2,es,,flat,Eixample,True,BCN19233,,False,False,True,True,False,41.3813409,2.1621099,Barcelona,Sant Antoni,False,,31,sale,True,True,,680000.0,6939.0,86426541,flat,Barcelona,3,False,98.0,good,"Sant Antoni, Barcelona",Piso,https://img3.idealista.com/blur/WEB_LISTING/0/id.pro.es.image.master/9d/bd/60/693462124.jpg,https://www.idealista.com/inmueble/86426541/
29,barrio Diagonal Mar i el Front Marítim del Poblenou,2,es,penthouse,flat,Sant Martí,True,BCN22583,,False,False,True,True,False,41.4070324,2.2174901,Barcelona,Diagonal Mar i el Front Marítim del Poblenou,False,,44,sale,True,True,,2500000.0,14286.0,88820227,penthouse,Barcelona,3,False,175.0,good,"Diagonal Mar i el Front Marítim del Poblenou, Barcelona",Ático,https://img3.idealista.com/blur/WEB_LISTING/0/id.pro.es.image.master/7a/39/f9/756228661.jpg,https://www.idealista.com/inmueble/88820227/
30,barrio El Gòtic,2,es,penthouse,flat,Ciutat Vella,True,BCN22805,,False,False,,False,False,41.381021,2.1776818,Barcelona,El Gòtic,False,,39,sale,,,,680000.0,3778.0,88820226,penthouse,Barcelona,3,False,180.0,good,"El Gòtic, Barcelona",Ático,https://img3.idealista.com/blur/WEB_LISTING/0/id.pro.es.image.master/15/ec/66/756228610.jpg,https://www.idealista.com/inmueble/88820226/
31,barrio La Dreta de l'Eixample,5,es,,flat,Eixample,False,BCNP2922,,False,False,True,False,False,41.3940401,2.1734998,Barcelona,La Dreta de l'Eixample,False,,25,sale,,,,3100000.0,9480.0,88819684,flat,Barcelona,3,False,327.0,good,"La Dreta de l'Eixample, Barcelona",Piso,https://img3.idealista.com/blur/WEB_LISTING/0/id.pro.es.image.master/5d/ac/11/756218375.jpg,https://www.idealista.com/inmueble/88819684/
32,barrio La Dreta de l'Eixample,2,es,,flat,Eixample,False,BCNP2923,,False,False,True,False,False,41.3934401,2.1733998,Barcelona,La Dreta de l'Eixample,False,,26,sale,,,,1210000.0,8231.0,88819681,flat,Barcelona,3,False,147.0,good,"La Dreta de l'Eixample, Barcelona",Piso,https://img3.idealista.com/blur/WEB_LISTING/0/id.pro.es.image.master/4c/5f/95/756218311.jpg,https://www.idealista.com/inmueble/88819681/
33,barrio La Dreta de l'Eixample,2,es,,flat,Eixample,False,BCNP2924,,False,False,True,False,False,41.3916401,2.1759998,Barcelona,La Dreta de l'Eixample,False,,26,sale,,,,950000.0,8407.0,88819678,flat,Barcelona,2,False,113.0,good,"La Dreta de l'Eixample, Barcelona",Piso,https://img3.idealista.com/blur/WEB_LISTING/0/id.pro.es.image.master/67/3c/d1/756218248.jpg,https://www.idealista.com/inmueble/88819678/
34,barrio La Dreta de l'Eixample,2,es,,flat,Eixample,False,BCNP2926,,False,False,True,False,False,41.3926401,2.1757998,Barcelona,La Dreta de l'Eixample,False,,21,sale,,,,1000000.0,8333.0,88819672,flat,Barcelona,2,False,120.0,good,"La Dreta de l'Eixample, Barcelona",Piso,https://img3.idealista.com/blur/WEB_LISTING/0/id.pro.es.image.master/39/7c/e5/756218132.jpg,https://www.idealista.com/inmueble/88819672/
35,barrio La Dreta de l'Eixample,2,es,,flat,Eixample,False,BCNP2927,,False,False,True,False,False,41.3944401,2.1758998,Barcelona,La Dreta de l'Eixample,False,,26,sale,,,,1010000.0,8860.0,88819670,flat,Barcelona,2,False,114.0,good,"La Dreta de l'Eixample, Barcelona",Piso,https://img3.idealista.com/blur/WEB_LISTING/0/id.pro.es.image.master/35/cc/92/756218093.jpg,https://www.idealista.com/inmueble/88819670/
36,barrio La Dreta de l'Eixample,2,es,,flat,Eixample,False,BCNP2932,,False,False,True,False,False,41.3935401,2.1753998,Barcelona,La Dreta de l'Eixample,False,,22,sale,,,,1900000.0,12418.0,88819658,flat,Barcelona,3,False,153.0,good,"La Dreta de l'Eixample, Barcelona",Piso,https://img3.idealista.com/blur/WEB_LISTING/0/id.pro.es.image.master/14/60/2c/756217780.jpg,https://www.idealista.com/inmueble/88819658/
37,barrio La Dreta de l'Eixample,2,es,,flat,Eixample,False,BCNP2943,,False,False,True,False,False,41.3943401,2.1755998,Barcelona,La Dreta de l'Eixample,False,,26,sale,,,,1970000.0,12086.0,88819636,flat,Barcelona,3,False,163.0,good,"La Dreta de l'Eixample, Barcelona",Piso,https://img3.idealista.com/blur/WEB_LISTING/0/id.pro.es.image.master/69/93/7f/756217346.jpg,https://www.idealista.com/inmueble/88819636/
38,barrio La Dreta de l'Eixample,3,es,,flat,Eixample,False,BCNP2945,,False,False,True,False,False,41.3922401,2.1748998,Barcelona,La Dreta de l'Eixample,False,,26,sale,,,,3350000.0,15952.0,88819635,flat,Barcelona,3,False,210.0,good,"La Dreta de l'Eixample, Barcelona",Piso,https://img3.idealista.com/blur/WEB_LISTING/0/id.pro.es.image.master/da/04/3f/756217308.jpg,https://www.idealista.com/inmueble/88819635/
39,barrio El Coll,1,es,,flat,Gràcia,True,238198,1,False,False,False,True,False,41.4157186,2.1498927,Barcelona,El Coll,False,,24,sale,,,,240000.0,3529.0,88819445,flat,Barcelona,3,False,68.0,good,"El Coll, Barcelona",Piso,https://img3.idealista.com/blur/WEB_LISTING/0/id.pro.es.image.master/b6/02/00/756554208.jpg,https://www.idealista.com/inmueble/88819445/
40,barrio El Clot,1,es,penthouse,flat,Sant Martí,True,237934,8,False,False,True,False,False,41.4103994,2.1936419,Barcelona,El Clot,False,,23,sale,,,,362000.0,4827.0,88819444,penthouse,Barcelona,2,False,75.0,good,"El Clot, Barcelona",Ático,https://img3.idealista.com/blur/WEB_LISTING/0/id.pro.es.image.master/af/83/93/758947202.jpg,https://www.idealista.com/inmueble/88819444/
41,barrio Sant Gervasi - La Bonanova,1,es,,flat,Sarrià-Sant Gervasi,True,228963,bj,False,False,True,False,False,41.4001096,2.1368224,Barcelona,Sant Gervasi - La Bonanova,False,,11,sale,,,,345000.0,5847.0,88819442,flat,Barcelona,2,False,59.0,good,"Sant Gervasi - La Bonanova, Barcelona",Piso,https://img3.idealista.com/blur/WEB_LISTING/0/id.pro.es.image.master/c7/89/0e/756212759.jpg,https://www.idealista.com/inmueble/88819442/
42,Calle de Nàpols,2,es,,flat,Gràcia,False,olle475000,3,False,False,True,False,False,41.4025894,2.1677947,Barcelona,El Camp d'En Grassot i Gràcia Nova,False,,35,sale,,,,475000.0,4095.0,88819382,flat,Barcelona,4,False,116.0,,"El Camp d'En Grassot i Gràcia Nova, Barcelona",Piso en Calle de Nàpols,https://img3.idealista.com/blur/WEB_LISTING/0/id.pro.es.image.master/df/12/12/756210998.jpg,https://www.idealista.com/inmueble/88819382/
43,Calle de Castanyer,2,es,,flat,Sarrià-Sant Gervasi,False,Ref. 202005,1,False,False,True,False,False,41.4043051,2.1365075,Barcelona,Sant Gervasi - La Bonanova,False,,29,sale,,,,660000.0,4714.0,88819378,flat,Barcelona,4,False,140.0,,"Sant Gervasi - La Bonanova, Barcelona",Piso en Calle de Castanyer,https://img3.idealista.com/blur/WEB_LISTING/0/id.pro.es.image.master/a7/a8/45/756210889.jpg,https://www.idealista.com/inmueble/88819378/
44,"Calle de Ramon Turró, 15",2,es,,flat,Sant Martí,False,B-000107,3,False,False,True,False,False,41.3910984,2.1909754,Barcelona,La Vila Olímpica del Poblenou,False,,13,sale,,,,475000.0,5220.0,88819376,flat,Barcelona,3,True,91.0,,"La Vila Olímpica del Poblenou, Barcelona","Piso en Calle de Ramon Turró, 15",https://img3.idealista.com/blur/WEB_LISTING/0/id.pro.es.image.master/e0/63/13/756210858.jpg,https://www.idealista.com/inmueble/88819376/
45,Calle Moli,1,es,penthouse,flat,Nou Barris,True,MolinoC1,4,False,False,False,False,False,41.4423656,2.178021,Barcelona,La Prosperitat,False,,12,sale,,,,127500.0,2833.0,88819372,penthouse,Barcelona,0,False,45.0,good,"La Prosperitat, Barcelona",Ático en Calle Moli,https://img3.idealista.com/blur/WEB_LISTING/0/id.pro.es.image.master/2e/42/f1/756210804.jpg,https://www.idealista.com/inmueble/88819372/
46,Calle del Comerç,2,es,penthouse,flat,Ciutat Vella,True,VH-02131,3,False,False,False,False,False,41.387596,2.1808151,Barcelona,Sant Pere - Santa Caterina i la Ribera,False,,26,sale,,,,495000.0,4420.0,88819311,penthouse,Barcelona,3,False,112.0,good,"Sant Pere - Santa Caterina i la Ribera, Barcelona",Ático en Calle del Comerç,https://img3.idealista.com/blur/WEB_LISTING/0/id.pro.es.image.master/f4/58/3d/756209444.jpg,https://www.idealista.com/inmueble/88819311/
47,Calle de las Navas de Tolosa,1,es,,flat,Sant Andreu,False,FM-I1183,4,False,False,True,False,False,41.4178633,2.1810816,Barcelona,Navas,False,,24,sale,,,,260000.0,3171.0,88819244,flat,Barcelona,3,False,82.0,good,"Navas, Barcelona",Piso en Calle de las Navas de Tolosa,https://img3.idealista.com/blur/WEB_LISTING/0/id.pro.es.image.master/e2/cd/5b/756207988.jpg,https://www.idealista.com/inmueble/88819244/
48,Calle de Llull,1,es,,flat,Sant Martí,True,FM-I1102,bj,False,False,True,False,False,41.4110236,2.2137089,Barcelona,El Besòs,False,,29,sale,,,,269000.0,2924.0,88819243,flat,Barcelona,3,False,92.0,good,"El Besòs, Barcelona",Piso en Calle de Llull,https://img3.idealista.com/blur/WEB_LISTING/0/id.pro.es.image.master/94/8e/1e/756207939.jpg,https://www.idealista.com/inmueble/88819243/
49,barrio El Baix Guinardó,1,es,,flat,Horta Guinardó,True,GHNP5-PADILLA,1,False,False,True,False,False,41.4101484,2.1711421,Barcelona,El Baix Guinardó,False,,10,sale,,,,299000.0,4746.0,88819232,flat,Barcelona,3,False,63.0,good,"El Baix Guinardó, Barcelona",Piso,https://img3.idealista.com/blur/WEB_LISTING/0/id.pro.es.image.master/41/79/7a/756207672.jpg,https://www.idealista.com/inmueble/88819232/
0,barrio El Carmel,1,es,penthouse,flat,Horta Guinardó,True,LuxeCarmel,5,False,False,True,False,False,41.4267828,2.1574133,Barcelona,El Carmel,False,,18,sale,,,,219000.0,3174.0,88552935,penthouse,Barcelona,3,False,69.0,good,"El Carmel, Barcelona",Ático,https://img3.idealista.com/blur/WEB_LISTING/0/id.pro.es.image.master/d1/c0/e1/749456294.jpg,https://www.idealista.com/inmueble/88552935/
1,Avenida Meridiana,1,es,,flat,Sant Andreu,True,i178,3,False,False,True,False,False,41.418443,2.1875943,Barcelona,Navas,False,,18,sale,,,,225000.0,3169.0,88819085,flat,Barcelona,3,False,71.0,good,"Navas, Barcelona",Piso en Avenida Meridiana,https://img3.idealista.com/blur/WEB_LISTING/0/id.pro.es.image.master/9f/30/6d/756204033.jpg,https://www.idealista.com/inmueble/88819085/
2,barrio El Raval,1,es,,flat,Ciutat Vella,True,5011,,False,False,True,False,False,41.3836872,2.1670521,Barcelona,El Raval,False,,16,sale,,,,235000.0,5875.0,36818034,flat,Barcelona,1,False,40.0,good,"El Raval, Barcelona",Piso,https://img3.idealista.com/blur/WEB_LISTING/0/id.pro.es.image.master/d4/90/f5/756196981.jpg,https://www.idealista.com/inmueble/36818034/
3,Calle de Varsòvia,1,es,,flat,Horta Guinardó,True,U10-165,3,False,False,False,False,False,41.4204388,2.1726942,Barcelona,El Guinardó,False,,16,sale,,,,185000.0,3136.0,88818289,flat,Barcelona,2,False,59.0,good,"El Guinardó, Barcelona",Piso en Calle de Varsòvia,https://img3.idealista.com/blur/WEB_LISTING/0/id.pro.es.image.master/29/93/df/756182228.jpg,https://www.idealista.com/inmueble/88818289/
4,Margarit,1,es,,flat,Sants-Montjuïc,True,,4,False,False,True,False,False,41.3756885,2.1622038,Barcelona,El Poble Sec - Parc de Montjuïc,False,,7,sale,,,,240000.0,3077.0,88817995,flat,Barcelona,3,False,78.0,good,"El Poble Sec - Parc de Montjuïc, Barcelona",Piso en Margarit,https://img3.idealista.com/blur/WEB_LISTING/180/id.pro.es.image.master/23/39/5b/756174746.jpg,https://www.idealista.com/inmueble/88817995/
5,barrio Pedralbes,4,es,,flat,Les Corts,True,FRS 1273,1,False,False,True,True,False,41.3904954,2.1270022,Barcelona,Pedralbes,False,,29,sale,True,True,,1195000.0,6751.0,88245703,flat,Barcelona,5,False,177.0,good,"Pedralbes, Barcelona",Piso,https://img3.idealista.com/blur/WEB_LISTING/0/id.pro.es.image.master/57/af/23/742300184.jpg,https://www.idealista.com/inmueble/88245703/
6,barrio Hostafrancs,2,es,,flat,Sants-Montjuïc,False,W-02H9DM,2,False,False,False,False,False,41.3779821,2.1401117,Barcelona,Hostafrancs,False,,15,sale,,,,460000.0,5349.0,88818083,flat,Barcelona,2,False,86.0,good,"Hostafrancs, Barcelona",Piso,https://img3.idealista.com/blur/WEB_LISTING/0/id.pro.es.image.master/d4/a0/52/756175605.jpg,https://www.idealista.com/inmueble/88818083/
7,barrio El Gòtic,2,es,,flat,Ciutat Vella,False,W-026P3L,3,False,False,True,False,False,41.3783592,2.1773032,Barcelona,El Gòtic,False,,48,sale,,,,730000.0,4171.0,88818077,flat,Barcelona,4,False,175.0,good,"El Gòtic, Barcelona",Piso,https://img3.idealista.com/blur/WEB_LISTING/0/id.pro.es.image.master/13/03/5e/756175471.jpg,https://www.idealista.com/inmueble/88818077/
8,Calle Industria,1,es,,flat,Sant Martí,True,vnt-santpau-azul,5,False,False,True,False,True,41.4137725,2.1818122,Barcelona,El Camp de l'Arpa del Clot,False,,21,sale,,,,230000.0,3067.0,88817475,flat,Barcelona,3,False,75.0,renew,"El Camp de l'Arpa del Clot, Barcelona",Piso en Calle Industria,https://img3.idealista.com/blur/WEB_LISTING/0/id.pro.es.image.master/f1/87/7f/756160286.jpg,https://www.idealista.com/inmueble/88817475/
9,Calle de Llorens i Barba,2,es,,flat,Horta Guinardó,True,000920,bj,False,False,False,False,False,41.4102496,2.1694018,Barcelona,El Baix Guinardó,False,,13,sale,,,,190000.0,1959.0,88817449,flat,Barcelona,2,False,97.0,good,"El Baix Guinardó, Barcelona",Piso en Calle de Llorens i Barba,https://img3.idealista.com/blur/WEB_LISTING/0/id.pro.es.image.master/2f/64/65/756159463.jpg,https://www.idealista.com/inmueble/88817449/
10,alfarras,1,es,,flat,Sant Andreu,True,3001,2,False,False,True,False,False,41.4381775,2.2044203,Barcelona,El Bon Pastor,False,,11,sale,,,,198000.0,2870.0,88817393,flat,Barcelona,2,False,69.0,good,"El Bon Pastor, Barcelona",Piso en alfarras,https://img3.idealista.com/blur/WEB_LISTING/0/id.pro.es.image.master/72/4c/04/756158488.jpg,https://www.idealista.com/inmueble/88817393/
11,barrio El Poble Sec - Parc de Montjuïc,2,es,,flat,Sants-Montjuïc,False,W-02ERU8,bj,False,False,False,True,False,41.3718244,2.1627339,Barcelona,El Poble Sec - Parc de Montjuïc,False,,17,sale,,,,890000.0,5669.0,88817388,flat,Barcelona,2,False,157.0,good,"El Poble Sec - Parc de Montjuïc, Barcelona",Piso,https://img3.idealista.com/blur/WEB_LISTING/0/id.pro.es.image.master/54/11/62/756158206.jpg,https://www.idealista.com/inmueble/88817388/
12,barrio El Raval,1,es,,flat,Ciutat Vella,False,W-02H8W7,,False,False,False,True,False,41.3821195,2.1655324,Barcelona,El Raval,False,,30,sale,,,,245000.0,3769.0,88817387,flat,Barcelona,3,False,65.0,good,"El Raval, Barcelona",Piso,https://img3.idealista.com/blur/WEB_LISTING/0/id.pro.es.image.master/6b/a0/e5/756158154.jpg,https://www.idealista.com/inmueble/88817387/
13,PORTUGALETE,1,es,,flat,Sants-Montjuïc,True,PB-PG199K,3,False,False,False,False,True,41.374976,2.1419232,Barcelona,Hostafrancs,False,,8,sale,,,,199000.0,2653.0,88816788,flat,Barcelona,3,False,75.0,good,"Hostafrancs, Barcelona",Piso en PORTUGALETE,https://img3.idealista.com/blur/WEB_LISTING/0/id.pro.es.image.master/ae/16/b0/756143072.jpg,https://www.idealista.com/inmueble/88816788/
14,Calle de la junta del comerç,2,es,,flat,Ciutat Vella,True,,2,False,False,False,False,False,41.3817811,2.1723817,Barcelona,El Raval,False,,14,sale,,,,215000.0,2529.0,88817287,flat,Barcelona,3,False,85.0,good,"El Raval, Barcelona",Piso en Calle de la junta del comerç,https://img3.idealista.com/blur/WEB_LISTING/0/id.pro.es.image.master/ed/ec/73/756157298.jpg,https://www.idealista.com/inmueble/88817287/
15,barrio Can Peguera - El Turó de la Peira,1,es,,flat,Nou Barris,False,TS2-2848,bj,False,False,True,False,False,41.4336152,2.1706937,Barcelona,Can Peguera - El Turó de la Peira,False,,23,sale,,,,186000.0,2620.0,88817118,flat,Barcelona,3,False,71.0,good,"Can Peguera - El Turó de la Peira, Barcelona",Piso,https://img3.idealista.com/blur/WEB_LISTING/0/id.pro.es.image.master/2f/bd/b2/756151632.jpg,https://www.idealista.com/inmueble/88817118/
16,barrio El Gòtic,2,es,,flat,Ciutat Vella,False,W-029MEX,1,False,False,False,True,False,41.3779407,2.1757179,Barcelona,El Gòtic,False,,27,sale,,,,595000.0,3719.0,88817103,flat,Barcelona,5,False,160.0,good,"El Gòtic, Barcelona",Piso,https://img3.idealista.com/blur/WEB_LISTING/0/id.pro.es.image.master/46/02/c8/756150977.jpg,https://www.idealista.com/inmueble/88817103/
17,"Calle de Jaume Puigvert, 20",2,es,,flat,Horta Guinardó,True,168022,2,False,False,True,True,True,41.4163185,2.1606789,Barcelona,Can Baró,False,,23,sale,True,True,,379000.0,4258.0,88817023,flat,Barcelona,2,True,89.0,good,"Can Baró, Barcelona","Piso en Calle de Jaume Puigvert, 20",https://img3.idealista.com/blur/WEB_LISTING/0/id.pro.es.image.master/f4/7e/00/756148876.jpg,https://www.idealista.com/inmueble/88817023/
18,"Calle de Felip II, 232",1,es,,flat,Sant Andreu,True,181606,2,False,False,True,False,True,41.4277562,2.1779268,Barcelona,El Congrés i els Indians,False,,20,sale,,,,305000.0,3813.0,88816995,flat,Barcelona,2,True,80.0,good,"El Congrés i els Indians, Barcelona","Piso en Calle de Felip II, 232",https://img3.idealista.com/blur/WEB_LISTING/0/id.pro.es.image.master/01/86/69/756148061.jpg,https://www.idealista.com/inmueble/88816995/
19,Calle del Rosés,1,es,,flat,Sants-Montjuïc,True,roses230,1,False,False,True,False,True,41.377188,2.132466,Barcelona,Sants,False,,35,sale,,,,230000.0,3538.0,88816980,flat,Barcelona,3,False,65.0,good,"Sants, Barcelona",Piso en Calle del Rosés,https://img3.idealista.com/blur/WEB_LISTING/0/id.pro.es.image.master/64/41/1f/756147837.jpg,https://www.idealista.com/inmueble/88816980/
20,"Calle de Sant Joaquim, 33",1,es,,flat,Gràcia,True,177085,3,False,False,True,True,True,41.4016824,2.1551351,Barcelona,Vila de Gràcia,False,,17,sale,,,,259000.0,5078.0,88816983,flat,Barcelona,1,True,51.0,good,"Vila de Gràcia, Barcelona","Piso en Calle de Sant Joaquim, 33",https://img3.idealista.com/blur/WEB_LISTING/0/id.pro.es.image.master/9d/2f/74/756147917.jpg,https://www.idealista.com/inmueble/88816983/
21,"Calle d'Elkano, 53",2,es,,flat,Sants-Montjuïc,True,239040,1,False,False,True,True,True,41.373787,2.1612478,Barcelona,El Poble Sec - Parc de Montjuïc,False,,27,sale,,,,410000.0,3661.0,88816978,flat,Barcelona,4,True,112.0,good,"El Poble Sec - Parc de Montjuïc, Barcelona","Piso en Calle d'Elkano, 53",https://img3.idealista.com/blur/WEB_LISTING/0/id.pro.es.image.master/9b/14/51/756147708.jpg,https://www.idealista.com/inmueble/88816978/
22,"Calle del Tinent Flomesta, 25",1,es,,flat,Sants-Montjuïc,True,22DZ,6,False,False,True,False,True,41.3740425,2.1319113,Barcelona,Sants,False,,16,sale,,,,205000.0,3417.0,88816876,flat,Barcelona,2,True,60.0,good,"Sants, Barcelona","Piso en Calle del Tinent Flomesta, 25",https://img3.idealista.com/blur/WEB_LISTING/0/id.pro.es.image.master/49/1e/e1/756146050.jpg,https://www.idealista.com/inmueble/88816876/
23,Calle de Puigcerdà,1,es,,flat,Sant Martí,True,vnt-puente2-azul,5,False,False,True,True,True,41.4206913,2.1995262,Barcelona,La Verneda i la Pau,False,,10,sale,,,,250000.0,2778.0,88816841,flat,Barcelona,4,False,90.0,good,"La Verneda i la Pau, Barcelona",Piso en Calle de Puigcerdà,https://img3.idealista.com/blur/WEB_LISTING/0/id.pro.es.image.master/02/ea/b6/756145912.jpg,https://www.idealista.com/inmueble/88816841/
24,Calle de Cantàbria,1,es,,flat,Sant Martí,True,vnt-puente-azul,10,False,False,True,True,True,41.4237094,2.199851,Barcelona,La Verneda i la Pau,False,,11,sale,,,,250000.0,3521.0,88816707,flat,Barcelona,3,False,71.0,good,"La Verneda i la Pau, Barcelona",Piso en Calle de Cantàbria,https://img3.idealista.com/blur/WEB_LISTING/0/id.pro.es.image.master/dd/ce/33/756141186.jpg,https://www.idealista.com/inmueble/88816707/
25,barrio El Poble Sec - Parc de Montjuïc,2,es,,flat,Sants-Montjuïc,False,W-02I6ZP,bj,False,False,False,True,False,41.3694789,2.163204,Barcelona,El Poble Sec - Parc de Montjuïc,False,,27,sale,,,,320000.0,3765.0,88816724,flat,Barcelona,2,False,85.0,good,"El Poble Sec - Parc de Montjuïc, Barcelona",Piso,https://img3.idealista.com/blur/WEB_LISTING/0/id.pro.es.image.master/75/fc/c4/756141318.jpg,https://www.idealista.com/inmueble/88816724/
26,barrio Sant Antoni,2,es,,flat,Eixample,True,1174,,False,False,True,False,False,41.3784236,2.1609838,Barcelona,Sant Antoni,False,,16,sale,,,,410000.0,4100.0,88813234,flat,Barcelona,4,False,100.0,good,"Sant Antoni, Barcelona",Piso,https://img3.idealista.com/blur/WEB_LISTING/0/id.pro.es.image.master/ef/d8/ff/756046443.jpg,https://www.idealista.com/inmueble/88813234/
27,barrio Sarrià,1,es,,flat,Sarrià-Sant Gervasi,True,1136,1,False,False,True,False,False,41.3964255,2.1262025,Barcelona,Sarrià,False,,18,sale,,,,460000.0,4259.0,88267994,flat,Barcelona,3,False,108.0,good,"Sarrià, Barcelona",Piso,https://img3.idealista.com/blur/WEB_LISTING/0/id.pro.es.image.master/90/a9/8c/754760351.jpg,https://www.idealista.com/inmueble/88267994/
28,Lluis Sagnier,1,es,,flat,Horta Guinardó,False,2694,bj,False,False,False,False,False,41.4255599,2.1747541,Barcelona,El Guinardó,False,,4,sale,,,,180000.0,3396.0,88816690,flat,Barcelona,1,False,53.0,good,"El Guinardó, Barcelona",Piso en Lluis Sagnier,https://img3.idealista.com/blur/WEB_LISTING/270/id.pro.es.image.master/65/fe/ee/756140832.jpg,https://www.idealista.com/inmueble/88816690/
29,Calle de Violant d'Hongria Reina d'Aragó,2,es,duplex,flat,Sants-Montjuïc,True,PB-VH496K,5,False,False,True,False,True,41.3780421,2.1284116,Barcelona,Sants - Badal,False,,34,sale,,,,496000.0,3543.0,88816560,duplex,Barcelona,4,False,140.0,good,"Sants - Badal, Barcelona",Dúplex en Calle de Violant d'Hongria Reina d'Aragó,https://img3.idealista.com/blur/WEB_LISTING/0/id.pro.es.image.master/ee/84/b8/756137669.jpg,https://www.idealista.com/inmueble/88816560/
30,CAstella,1,es,,flat,Sant Martí,True,Castella30V,6,False,False,True,False,False,41.4069933,2.1955544,Barcelona,Provençals del Poblenou,False,,20,sale,,,,295000.0,3278.0,88816213,flat,Barcelona,4,False,90.0,good,"Provençals del Poblenou, Barcelona",Piso en CAstella,https://img3.idealista.com/blur/WEB_LISTING/0/id.pro.es.image.master/a6/90/66/756127586.jpg,https://www.idealista.com/inmueble/88816213/
31,barrio La Dreta de l'Eixample,1,es,,flat,Eixample,True,FEC0925,1,False,False,True,False,True,41.4005279,2.1724824,Barcelona,La Dreta de l'Eixample,False,,28,sale,,,,535000.0,3794.0,88816581,flat,Barcelona,2,False,141.0,renew,"La Dreta de l'Eixample, Barcelona",Piso,https://img3.idealista.com/blur/WEB_LISTING/0/id.pro.es.image.master/bc/9c/00/756137702.jpg,https://www.idealista.com/inmueble/88816581/
32,barrio El Poblenou,1,es,,flat,Sant Martí,True,FEC0552,bj,False,False,True,False,True,41.3982268,2.2029007,Barcelona,El Poblenou,False,,31,sale,,,,560000.0,6222.0,88816578,flat,Barcelona,2,False,90.0,good,"El Poblenou, Barcelona",Piso,https://img3.idealista.com/blur/WEB_LISTING/0/id.pro.es.image.master/a7/b7/c4/756137630.jpg,https://www.idealista.com/inmueble/88816578/
33,barrio El Raval,1,es,,flat,Ciutat Vella,True,vnt-santantoni-azul,2,False,False,False,False,True,41.3825886,2.1630333,Barcelona,El Raval,False,,25,sale,,,,135000.0,4355.0,88816474,flat,Barcelona,1,False,31.0,good,"El Raval, Barcelona",Piso,https://img3.idealista.com/blur/WEB_LISTING/0/id.pro.es.image.master/9f/c0/26/756135815.jpg,https://www.idealista.com/inmueble/88816474/
34,Calle del Poeta Cabanyes,1,es,penthouse,flat,Sants-Montjuïc,True,,4,False,False,False,True,True,41.3718795,2.1652452,Barcelona,El Poble Sec - Parc de Montjuïc,False,,30,sale,,,,339000.0,4581.0,88816452,penthouse,Barcelona,2,False,74.0,good,"El Poble Sec - Parc de Montjuïc, Barcelona",Ático en Calle del Poeta Cabanyes,https://img3.idealista.com/blur/WEB_LISTING/0/id.pro.es.image.master/f0/8b/5f/756133692.jpg,https://www.idealista.com/inmueble/88816452/
35,barrio El Camp de l'Arpa del Clot,2,es,,flat,Sant Martí,True,148-5917,4,False,False,True,False,True,41.411635,2.1875902,Barcelona,El Camp de l'Arpa del Clot,False,,19,sale,,,,269900.0,3856.0,88814710,flat,Barcelona,3,False,70.0,good,"El Camp de l'Arpa del Clot, Barcelona",Piso,https://img3.idealista.com/blur/WEB_LISTING/0/id.pro.es.image.master/99/96/34/756093180.jpg,https://www.idealista.com/inmueble/88814710/
36,Via Favència,1,es,,flat,Nou Barris,True,Atic Favencia,7,False,False,True,False,False,41.4475228,2.1878637,Barcelona,La Prosperitat,False,,6,sale,,,,176000.0,2286.0,88816457,flat,Barcelona,2,False,77.0,good,"La Prosperitat, Barcelona",Piso en Via Favència,https://img3.idealista.com/blur/WEB_LISTING/0/id.pro.es.image.master/61/86/97/756133425.jpg,https://www.idealista.com/inmueble/88816457/
37,Paseo de Picasso,2,es,,flat,Ciutat Vella,True,CM Born,2,False,False,True,True,False,41.3851282,2.1830939,Barcelona,Sant Pere - Santa Caterina i la Ribera,False,,8,sale,,,,860000.0,6143.0,88816061,flat,Barcelona,4,False,140.0,good,"Sant Pere - Santa Caterina i la Ribera, Barcelona",Piso en Paseo de Picasso,https://img3.idealista.com/blur/WEB_LISTING/0/id.pro.es.image.master/a5/5f/06/756129518.jpg,https://www.idealista.com/inmueble/88816061/
38,PONCE DE LEON,1,es,,flat,Nou Barris,True,ARTNOU,3,False,False,False,True,False,41.4424902,2.1731681,Barcelona,Verdun,False,,20,sale,,,,170000.0,2881.0,88816237,flat,Barcelona,2,False,59.0,good,"Verdun, Barcelona",Piso en PONCE DE LEON,https://img3.idealista.com/blur/WEB_LISTING/0/id.pro.es.image.master/58/27/d2/756129376.jpg,https://www.idealista.com/inmueble/88816237/
39,Calle del Rosselló,2,es,,flat,Eixample,True,090789,3,False,False,True,False,True,41.3968548,2.1630372,Barcelona,La Dreta de l'Eixample,False,,22,sale,,,,598000.0,5537.0,88816104,flat,Barcelona,3,False,108.0,good,"La Dreta de l'Eixample, Barcelona",Piso en Calle del Rosselló,https://img3.idealista.com/blur/WEB_LISTING/0/id.pro.es.image.master/ef/b4/b2/756125653.jpg,https://www.idealista.com/inmueble/88816104/
40,industria,3,es,,flat,Gràcia,True,V165,9,False,False,True,False,False,41.4058123,2.1675235,Barcelona,El Camp d'En Grassot i Gràcia Nova,False,,2,sale,True,True,,1250000.0,5208.0,88816185,flat,Barcelona,5,False,240.0,renew,"El Camp d'En Grassot i Gràcia Nova, Barcelona",Piso en industria,https://img3.idealista.com/blur/WEB_LISTING/0/id.pro.es.image.master/d8/8b/85/756127019.jpg,https://www.idealista.com/inmueble/88816185/
41,fatima,1,es,,flat,Horta Guinardó,True,V-FATIMA,1,False,False,True,False,False,41.4337302,2.1573254,Barcelona,Horta,False,,17,sale,,,,215000.0,2792.0,88815690,flat,Barcelona,3,False,77.0,good,"Horta, Barcelona",Piso en fatima,https://img3.idealista.com/blur/WEB_LISTING/0/id.pro.es.image.master/a1/f2/21/756114733.jpg,https://www.idealista.com/inmueble/88815690/
